{
"Sheet1":[
 {
  "S.No.": 1,
  "District": "Annamayya",
  "Location Name \n(Name of the VD)": "VD MADHAVARAM",
  "Mandal": "Rayachoty",
  "Village": "Madhavaram",
  "VAS Name": "Dr.J.Suresh (AD)",
  "VAS contact number": 9492255251,
  "Inv No": "FE\/ILR\/ANM\/110",
  "Invoice Date": "4-Feb-24",
  "ILR .SL.No": 3712231313,
  "IoT \nNumber": "AA 1799",
  "Delivery Date": "5-Feb-24",
  "lat": 14.0573757,
  "lng": 78.6398737
 },
 {
  "S.No.": 2,
  "District": "Annamayya",
  "Location Name \n(Name of the VD)": "VD Motakatla",
  "Mandal": "Sambepalli",
  "Village": "Motakatla",
  "VAS Name": "Dr.Bharathi  (AD)",
  "VAS contact number": 8309706431,
  "Inv No": "FE\/ILR\/ANM\/111",
  "Invoice Date": "4-Feb-24",
  "ILR .SL.No": 3712231321,
  "IoT \nNumber": "AA 1781",
  "Delivery Date": "5-Feb-24",
  "lat": 13.9899975,
  "lng": 78.749392
 },
 {
  "S.No.": 3,
  "District": "Annamayya",
  "Location Name \n(Name of the VD)": "RLU Dudyala",
  "Mandal": "Sambepalli",
  "Village": "Dudyala",
  "VAS Name": "Dr.P.Kamalamma",
  "VAS contact number": 8309706431,
  "Inv No": "FE\/ILR\/ANM\/112",
  "Invoice Date": "4-Feb-24",
  "ILR .SL.No": 3712231324,
  "IoT \nNumber": "AA 0899",
  "Delivery Date": "5-Feb-24",
  "lat": 13.9844730041112,
  "lng": 78.840060079061
 },
 {
  "S.No.": 4,
  "District": "Annamayya",
  "Location Name \n(Name of the VD)": "VD Nadimicherla",
  "Mandal": "Kalakada",
  "Village": "Nadimicherla",
  "VAS Name": "Dr.P.Kamalamma",
  "VAS contact number": 8297875181,
  "Inv No": "FE\/ILR\/ANM\/113",
  "Invoice Date": "4-Feb-24",
  "ILR .SL.No": 3712231322,
  "IoT \nNumber": "AA 1668",
  "Delivery Date": "5-Feb-24",
  "lat": 13.8320274,
  "lng": 78.6841917
 },
 {
  "S.No.": 5,
  "District": "Annamayya",
  "Location Name \n(Name of the VD)": "VD Athiralla",
  "Mandal": "Rajampet",
  "Village": "Athiralla",
  "VAS Name": "Dr.S.Khadeer Basha (AD)",
  "VAS contact number": 9441790904,
  "Inv No": "FE\/ILR\/ANM\/114",
  "Invoice Date": "4-Feb-24",
  "ILR .SL.No": 3712231319,
  "IoT \nNumber": "AA 1769",
  "Delivery Date": "5-Feb-24",
  "lat": 14.1861951198073,
  "lng": 79.1462959676173
 },
 {
  "S.No.": 6,
  "District": "Annamayya",
  "Location Name \n(Name of the VD)": "VD Reddipalli",
  "Mandal": "Pullampeta",
  "Village": "Reddipalli",
  "VAS Name": "Dr.S.Khadeer Basha (AD)",
  "VAS contact number": 9573795305,
  "Inv No": "FE\/ILR\/ANM\/115",
  "Invoice Date": "4-Feb-24",
  "ILR .SL.No": 3712231311,
  "IoT \nNumber": "AA 1797",
  "Delivery Date": "5-Feb-24",
  "lat": 14.0927277,
  "lng": 79.227845
 },
 {
  "S.No.": 7,
  "District": "Annamayya",
  "Location Name \n(Name of the VD)": "VD Bavikadapalli",
  "Mandal": "Pullampeta",
  "Village": "Bavikadapalli",
  "VAS Name": "Dr.A.V.Rathna kumar (AD)",
  "VAS contact number": 9989779022,
  "Inv No": "FE\/ILR\/ANM\/116",
  "Invoice Date": "4-Feb-24",
  "ILR .SL.No": 3712231312,
  "IoT \nNumber": "AA 1885",
  "Delivery Date": "5-Feb-24",
  "lat": 14.1267206,
  "lng": 79.1167483
 },
 {
  "S.No.": 8,
  "District": "Annamayya",
  "Location Name \n(Name of the VD)": "VD Patur ",
  "Mandal": "Nandalur",
  "Village": "Patur",
  "VAS Name": "Dr.R.Prakash (AD)",
  "VAS contact number": 7981970681,
  "Inv No": "FE\/ILR\/ANM\/117",
  "Invoice Date": "4-Feb-24",
  "ILR .SL.No": 3712231310,
  "IoT \nNumber": "AA 1775",
  "Delivery Date": "5-Feb-24",
  "lat": 14.2585193,
  "lng": 79.0754877
 },
 {
  "S.No.": 9,
  "District": "Annamayya",
  "Location Name \n(Name of the VD)": "VH Thamballapalle",
  "Mandal": "Thamballapalle",
  "Village": "Thamballapalli",
  "VAS Name": "DR A.Ramesh",
  "VAS contact number": 9493371070,
  "Inv No": "FE\/ILR\/ANM\/118",
  "Invoice Date": "4-Feb-24",
  "ILR .SL.No": 3712231283,
  "IoT \nNumber": "AA  0449",
  "Delivery Date": "5-Feb-24",
  "lat": 13.8237025,
  "lng": 78.4478355
 },
 {
  "S.No.": 10,
  "District": "Annamayya",
  "Location Name \n(Name of the VD)": "VD Gundlapalle",
  "Mandal": "Thamballapalle",
  "Village": "Gundlapalli",
  "VAS Name": "Dr.Nagababu",
  "VAS contact number": 9573763211,
  "Inv No": "FE\/ILR\/ANM\/119",
  "Invoice Date": "4-Feb-24",
  "ILR .SL.No": 3712231284,
  "IoT \nNumber": "AA  0654",
  "Delivery Date": "5-Feb-24",
  "lat": 13.8305593513499,
  "lng": 78.4122191772308
 },
 {
  "S.No.": 11,
  "District": "Annamayya",
  "Location Name \n(Name of the VD)": "VD KALICHERLA",
  "Mandal": "Peddamandyam",
  "Village": "Kalicherla",
  "VAS Name": "Dr.D.Dileep Kumar",
  "VAS contact number": 9398276551,
  "Inv No": "FE\/ILR\/ANM\/120",
  "Invoice Date": "4-Feb-24",
  "ILR .SL.No": 3712231325,
  "IoT \nNumber": "AA 1656",
  "Delivery Date": "5-Feb-24",
  "lat": 13.8876961,
  "lng": 78.5398204
 },
 {
  "S.No.": 12,
  "District": "Annamayya",
  "Location Name \n(Name of the VD)": "VD Reddivaripalle",
  "Mandal": "Nimmanapalle",
  "Village": "Reddivaripalli",
  "VAS Name": "DR P.Manjunath",
  "VAS contact number": 9052969192,
  "Inv No": "FE\/ILR\/ANM\/121",
  "Invoice Date": "5-Feb-24",
  "ILR .SL.No": 3712231360,
  "IoT \nNumber": "AA 1565",
  "Delivery Date": "6-Feb-24",
  "lat": 13.5596680227681,
  "lng": 78.6063352590839
 },
 {
  "S.No.": 13,
  "District": "Annamayya",
  "Location Name \n(Name of the VD)": "DD Madanapalle",
  "Mandal": "Madanapalle  ",
  "Village": "Madanapalli",
  "VAS Name": "DR P.Manjunath",
  "VAS contact number": 9393872163,
  "Inv No": "FE\/ILR\/ANM\/122",
  "Invoice Date": "4-Feb-24",
  "ILR .SL.No": 3712231327,
  "IoT \nNumber": "AA 1815",
  "Delivery Date": "5-Feb-24",
  "lat": 13.5560496,
  "lng": 78.5010006999999
 },
 {
  "S.No.": 14,
  "District": "Annamayya",
  "Location Name \n(Name of the VD)": "VD Kandukur",
  "Mandal": "Peddathippasamudram",
  "Village": "Kandukur",
  "VAS Name": "Dr Samatha Reddy",
  "VAS contact number": 8341664184,
  "Inv No": "FE\/ILR\/ANM\/123",
  "Invoice Date": "5-Feb-24",
  "ILR .SL.No": 3712231367,
  "IoT \nNumber": "AA 1666",
  "Delivery Date": "6-Feb-24",
  "lat": 13.7632884461093,
  "lng": 78.1556326981214
 },
 {
  "S.No.": 15,
  "District": "Annamayya",
  "Location Name \n(Name of the VD)": "VD T.Chowdasamudram",
  "Mandal": "Mulakalacheruvu",
  "Village": "Molakalacheruvu",
  "VAS Name": "Dr Prasad",
  "VAS contact number": 7032542101,
  "Inv No": "FE\/ILR\/ANM\/124",
  "Invoice Date": "4-Feb-24",
  "ILR .SL.No": 3712231318,
  "IoT \nNumber": "AA 1780",
  "Delivery Date": "5-Feb-24",
  "lat": 13.8605064888847,
  "lng": 78.3363879551988
 },
 {
  "S.No.": 16,
  "District": "Annamayya",
  "Location Name \n(Name of the VD)": "RLU Thettu",
  "Mandal": "Kurabalakota",
  "Village": "Thettu",
  "VAS Name": "Dr Prasad",
  "VAS contact number": 8978366814,
  "Inv No": "FE\/ILR\/ANM\/125",
  "Invoice Date": "5-Feb-24",
  "ILR .SL.No": 3712231361,
  "IoT \nNumber": "AA 1667",
  "Delivery Date": "6-Feb-24",
  "lat": 13.6282384,
  "lng": 78.4361687
 },
 {
  "S.No.": 17,
  "District": "Annamayya",
  "Location Name \n(Name of the VD)": "VD Ghattu",
  "Mandal": "B.Kothakota",
  "Village": "Ghattu",
  "VAS Name": "Dr Prasad",
  "VAS contact number": 9704327744,
  "Inv No": "FE\/ILR\/ANM\/126",
  "Invoice Date": "4-Feb-24",
  "ILR .SL.No": 3712231308,
  "IoT \nNumber": "AA 1697",
  "Delivery Date": "5-Feb-24",
  "lat": 13.6608646277248,
  "lng": 78.2611643967202
 },
 {
  "S.No.": 18,
  "District": "Annamayya",
  "Location Name \n(Name of the VD)": "RLU Thummanamgutta",
  "Mandal": "B.Kothakota",
  "Village": "Thummanagutta",
  "VAS Name": "Dr.USHA KIRAN",
  "VAS contact number": 9985347097,
  "Inv No": "FE\/ILR\/ANM\/127",
  "Invoice Date": "4-Feb-24",
  "ILR .SL.No": 3712231320,
  "IoT \nNumber": "AA 1887",
  "Delivery Date": "5-Feb-24",
  "lat": 13.7177171888401,
  "lng": 78.3956069492308
 },
 {
  "S.No.": 19,
  "District": "ANANTAPUR",
  "Location Name \n(Name of the VD)": "VH ANANTAPUR",
  "Mandal": "ANANTAPUR",
  "Village": "ANANTAPUR",
  "VAS Name": "Dr.B.Sai Supraja",
  "VAS contact number": 8639854351,
  "Inv No": "FE\/ILR\/ATP\/034",
  "Invoice Date": "5-Feb-24",
  "ILR .SL.No": 3712231378,
  "IoT \nNumber": "AA 1821",
  "Delivery Date": "6-Feb-24",
  "lat": 14.6822365512252,
  "lng": 77.6007982546217
 },
 {
  "S.No.": 20,
  "District": "ANANTAPUR",
  "Location Name \n(Name of the VD)": "VH BK SAMUDRAM",
  "Mandal": "BK SAMUDRAM",
  "Village": "BK SAMUDRAM",
  "VAS Name": "Dr. P.Mahesh",
  "VAS contact number": 9440126869,
  "Inv No": "FE\/ILR\/ATP\/035",
  "Invoice Date": "5-Feb-24",
  "ILR .SL.No": 3712231376,
  "IoT \nNumber": "AA 1645",
  "Delivery Date": "6-Feb-24",
  "lat": 14.6701425229657,
  "lng": 77.6124069476083
 },
 {
  "S.No.": 21,
  "District": "ANANTAPUR",
  "Location Name \n(Name of the VD)": "VH GOOTY",
  "Mandal": "GOOTY",
  "Village": "GOOTY",
  "VAS Name": "Dr. P.Mahesh",
  "VAS contact number": 9182370829,
  "Inv No": "FE\/ILR\/ATP\/036",
  "Invoice Date": "5-Feb-24",
  "ILR .SL.No": 3712231381,
  "IoT \nNumber": "AA 1859",
  "Delivery Date": "6-Feb-24",
  "lat": 15.1219378564281,
  "lng": 77.6352866608792
 },
 {
  "S.No.": 22,
  "District": "ANANTAPUR",
  "Location Name \n(Name of the VD)": "VH RAPTHADU",
  "Mandal": "RAPTHADU",
  "Village": "RAPTHADU",
  "VAS Name": "DR Kantamma",
  "VAS contact number": 6281227550,
  "Inv No": "FE\/ILR\/ATP\/037",
  "Invoice Date": "5-Feb-24",
  "ILR .SL.No": 3712231384,
  "IoT \nNumber": "AA 1723",
  "Delivery Date": "6-Feb-24",
  "lat": 14.6164005,
  "lng": 77.6056407
 },
 {
  "S.No.": 23,
  "District": "ANANTAPUR",
  "Location Name \n(Name of the VD)": "VH TADIPATRI",
  "Mandal": "TADIPATRI",
  "Village": "TADIPATRI",
  "VAS Name": "Dr Sree vidhya",
  "VAS contact number": 9885175008,
  "Inv No": "FE\/ILR\/ATP\/038",
  "Invoice Date": "5-Feb-24",
  "ILR .SL.No": 3712231372,
  "IoT \nNumber": "AA 1678",
  "Delivery Date": "6-Feb-24",
  "lat": 14.9096868566007,
  "lng": 77.9995617107564
 },
 {
  "S.No.": 24,
  "District": "ANANTAPUR",
  "Location Name \n(Name of the VD)": "VH YELLANURU",
  "Mandal": "YELLANURU",
  "Village": "YELLANURU",
  "VAS Name": "Dr Krishna Murthy Naik",
  "VAS contact number": 9885175008,
  "Inv No": "FE\/ILR\/ATP\/039",
  "Invoice Date": "5-Feb-24",
  "ILR .SL.No": 3712231363,
  "IoT \nNumber": "AA 0192",
  "Delivery Date": "6-Feb-24",
  "lat": 14.7000169,
  "lng": 78.0733647
 },
 {
  "S.No.": 25,
  "District": "ANANTAPUR",
  "Location Name \n(Name of the VD)": "VD Pampanuru",
  "Mandal": "ATMAKUR",
  "Village": " Pampanuru",
  "VAS Name": "Dr Krishna Murthy Naik",
  "VAS contact number": 9603052651,
  "Inv No": "FE\/ILR\/ATP\/040",
  "Invoice Date": "6-Feb-24",
  "ILR .SL.No": 3712231332,
  "IoT \nNumber": "AA 1846",
  "Delivery Date": "7-Feb-24",
  "lat": 14.6617336,
  "lng": 77.4174824
 },
 {
  "S.No.": 26,
  "District": "ANANTAPUR",
  "Location Name \n(Name of the VD)": "VD Peddavaduguru",
  "Mandal": "PEDDAVADAGUR",
  "Village": " Peddavaduguru",
  "VAS Name": "DR P.Naresh",
  "VAS contact number": 9491455290,
  "Inv No": "FE\/ILR\/ATP\/041",
  "Invoice Date": "5-Feb-24",
  "ILR .SL.No": 3712231370,
  "IoT \nNumber": "AA 1720",
  "Delivery Date": "6-Feb-24",
  "lat": 15.0197123,
  "lng": 77.6732438
 },
 {
  "S.No.": 27,
  "District": "ANANTAPUR",
  "Location Name \n(Name of the VD)": "VD Kristipadu",
  "Mandal": "PEDDAVADAGUR",
  "Village": " Kristipadu",
  "VAS Name": "DR P.Naresh",
  "VAS contact number": 9491455290,
  "Inv No": "FE\/ILR\/ATP\/042",
  "Invoice Date": "5-Feb-24",
  "ILR .SL.No": 3712231362,
  "IoT \nNumber": "AA 1870",
  "Delivery Date": "6-Feb-24",
  "lat": 15.0642751,
  "lng": 77.7789065
 },
 {
  "S.No.": 28,
  "District": "ANANTAPUR",
  "Location Name \n(Name of the VD)": "VD Pamidi",
  "Mandal": "PAMIDI",
  "Village": " Pamidi",
  "VAS Name": "DR Nancharaiah",
  "VAS contact number": 9701110316,
  "Inv No": "FE\/ILR\/ATP\/043",
  "Invoice Date": "7-Feb-24",
  "ILR .SL.No": 3712231331,
  "IoT \nNumber": "AA 1773",
  "Delivery Date": "8-Feb-24",
  "lat": 14.968763061671,
  "lng": 77.6011732065467
 },
 {
  "S.No.": 29,
  "District": "ANANTAPUR",
  "Location Name \n(Name of the VD)": "VD Eddulapalli",
  "Mandal": "PAMIDI",
  "Village": " Eddulapalli",
  "VAS Name": "Dr.mahesh",
  "VAS contact number": 7569248929,
  "Inv No": "FE\/ILR\/ATP\/044",
  "Invoice Date": "7-Feb-24",
  "ILR .SL.No": 3712231270,
  "IoT \nNumber": "AA  1840",
  "Delivery Date": "8-Feb-24",
  "lat": 14.9441302,
  "lng": 77.495291
 },
 {
  "S.No.": 30,
  "District": "ANANTAPUR",
  "Location Name \n(Name of the VD)": "VD Pathakothacheruvu",
  "Mandal": " Guntakal",
  "Village": "Pathakothacheruvu",
  "VAS Name": "Dr.K.Subbaiah",
  "VAS contact number": 7989985276,
  "Inv No": "FE\/ILR\/ATP\/045",
  "Invoice Date": "5-Feb-24",
  "ILR .SL.No": 3712231386,
  "IoT \nNumber": "AA 1868",
  "Delivery Date": "6-Feb-24",
  "lat": 15.167078796075,
  "lng": 77.4930904409855
 },
 {
  "S.No.": 31,
  "District": "ANANTAPUR",
  "Location Name \n(Name of the VD)": "VD Nagasamudram",
  "Mandal": " Guntakal",
  "Village": " Nagasamudram",
  "VAS Name": "Dr.V.Divya ",
  "VAS contact number": 7989985276,
  "Inv No": "FE\/ILR\/ATP\/046",
  "Invoice Date": "5-Feb-24",
  "ILR .SL.No": 3712231380,
  "IoT \nNumber": "AA 1888",
  "Delivery Date": "6-Feb-24",
  "lat": 15.0474990462361,
  "lng": 77.4938839917804
 },
 {
  "S.No.": 32,
  "District": "ANANTAPUR",
  "Location Name \n(Name of the VD)": "VD Chayapuram",
  "Mandal": "Vajrakarur",
  "Village": " Chayapuram",
  "VAS Name": "Dr.K.Bhagyavathi",
  "VAS contact number": 9676048088,
  "Inv No": "FE\/ILR\/ATP\/047",
  "Invoice Date": "6-Feb-24",
  "ILR .SL.No": 3712231354,
  "IoT \nNumber": "AA 1803",
  "Delivery Date": "7-Feb-24",
  "lat": 15.0750154,
  "lng": 77.3330503
 },
 {
  "S.No.": 33,
  "District": "ANANTAPUR",
  "Location Name \n(Name of the VD)": "VD Konakondla",
  "Mandal": "Vajrakarur",
  "Village": " Konakondla",
  "VAS Name": "Dr.P.Snigdha Pranitha",
  "VAS contact number": 9676048088,
  "Inv No": "FE\/ILR\/ATP\/048",
  "Invoice Date": "6-Feb-24",
  "ILR .SL.No": 3712231339,
  "IoT \nNumber": "AA 1661",
  "Delivery Date": "7-Feb-24",
  "lat": 15.1052635,
  "lng": 77.3640257
 },
 {
  "S.No.": 34,
  "District": "ANANTAPUR",
  "Location Name \n(Name of the VD)": "VH uravakonda",
  "Mandal": "uravakonda",
  "Village": " uravakonda",
  "VAS Name": "Dr.K.Sujana",
  "VAS contact number": 9490476511,
  "Inv No": "FE\/ILR\/ATP\/049",
  "Invoice Date": "6-Feb-24",
  "ILR .SL.No": 3712231330,
  "IoT \nNumber": "AA 1595",
  "Delivery Date": "7-Feb-24",
  "lat": 14.9406153312627,
  "lng": 77.2446611774727
 },
 {
  "S.No.": 35,
  "District": "ANANTAPUR",
  "Location Name \n(Name of the VD)": "VD Peddakowkuntla",
  "Mandal": "uravakonda",
  "Village": " Peddakowkuntla",
  "VAS Name": "P V Shubha Nireekshana ",
  "VAS contact number": 9052454392,
  "Inv No": "FE\/ILR\/ATP\/050",
  "Invoice Date": "6-Feb-24",
  "ILR .SL.No": 3712231345,
  "IoT \nNumber": "AA 1804",
  "Delivery Date": "7-Feb-24",
  "lat": 14.8012963,
  "lng": 77.2060241
 },
 {
  "S.No.": 36,
  "District": "ANANTAPUR",
  "Location Name \n(Name of the VD)": "VD Havaligi",
  "Mandal": "Vidapanakal",
  "Village": " Havaligi",
  "VAS Name": "P V Shubha Nireekshana ",
  "VAS contact number": 9652632666,
  "Inv No": "FE\/ILR\/ATP\/051",
  "Invoice Date": "6-Feb-24",
  "ILR .SL.No": 3712231336,
  "IoT \nNumber": "AA 0250",
  "Delivery Date": "7-Feb-24",
  "lat": 15.016768102286,
  "lng": 77.1101559920661
 },
 {
  "S.No.": 37,
  "District": "ANANTAPUR",
  "Location Name \n(Name of the VD)": "VD Gadekal",
  "Mandal": "Vidapanakal",
  "Village": " Gadekal",
  "VAS Name": "Dr N Poornima",
  "VAS contact number": 9652632666,
  "Inv No": "FE\/ILR\/ATP\/052",
  "Invoice Date": "6-Feb-24",
  "ILR .SL.No": 3712231350,
  "IoT \nNumber": "AA 1747",
  "Delivery Date": "7-Feb-24",
  "lat": 15.0897183,
  "lng": 77.2076599
 },
 {
  "S.No.": 38,
  "District": "ANANTAPUR",
  "Location Name \n(Name of the VD)": "RLU Golla",
  "Mandal": "Kalyandurg",
  "Village": " Golla",
  "VAS Name": "Dr S Suresh",
  "VAS contact number": 7702782183,
  "Inv No": "FE\/ILR\/ATP\/053",
  "Invoice Date": "5-Feb-24",
  "ILR .SL.No": 3712231387,
  "IoT \nNumber": "AA 1683",
  "Delivery Date": "6-Feb-24",
  "lat": 14.5519565,
  "lng": 77.1107476
 },
 {
  "S.No.": 39,
  "District": "ANANTAPUR",
  "Location Name \n(Name of the VD)": "VD Beluguppa",
  "Mandal": "Beluguppa",
  "Village": " Beluguppa",
  "VAS Name": "Dr R Vikram",
  "VAS contact number": 9963006707,
  "Inv No": "FE\/ILR\/ATP\/054",
  "Invoice Date": "5-Feb-24",
  "ILR .SL.No": 3712231375,
  "IoT \nNumber": "AA 0362",
  "Delivery Date": "6-Feb-24",
  "lat": 14.7164531,
  "lng": 77.1346636999999
 },
 {
  "S.No.": 40,
  "District": "ANANTAPUR",
  "Location Name \n(Name of the VD)": "VD Siripikottala",
  "Mandal": "Beluguppa",
  "Village": " Siripikottala",
  "VAS Name": "Dr K Rangaiah",
  "VAS contact number": 9515975011,
  "Inv No": "FE\/ILR\/ATP\/055",
  "Invoice Date": "5-Feb-24",
  "ILR .SL.No": 3712231377,
  "IoT \nNumber": "AA 0694",
  "Delivery Date": "6-Feb-24",
  "lat": 14.7164531,
  "lng": 77.1346636999999
 },
 {
  "S.No.": 41,
  "District": "ANANTAPUR",
  "Location Name \n(Name of the VD)": "VD MNPalli",
  "Mandal": "Kalyandurg",
  "Village": " MNPalli",
  "VAS Name": "Dr M Jagan Mohan Reddy",
  "VAS contact number": 7702782183,
  "Inv No": "FE\/ILR\/ATP\/056",
  "Invoice Date": "5-Feb-24",
  "ILR .SL.No": 3712231382,
  "IoT \nNumber": "AA 1763",
  "Delivery Date": "6-Feb-24",
  "lat": 14.6093788829131,
  "lng": 77.2625113132257
 },
 {
  "S.No.": 42,
  "District": "ANANTAPUR",
  "Location Name \n(Name of the VD)": "VD Molakaledu",
  "Mandal": " settur",
  "Village": " Molakaledu",
  "VAS Name": "G Kareem Saheb",
  "VAS contact number": 9494058353,
  "Inv No": "FE\/ILR\/ATP\/057",
  "Invoice Date": "6-Feb-24",
  "ILR .SL.No": 3712231356,
  "IoT \nNumber": "AA 1771",
  "Delivery Date": "7-Feb-24",
  "lat": 14.3661189345168,
  "lng": 76.9269428480616
 },
 {
  "S.No.": 43,
  "District": "ANANTAPUR",
  "Location Name \n(Name of the VD)": "VD Kundurpi",
  "Mandal": "Kundurpi",
  "Village": " Kundurpi",
  "VAS Name": "P Rama Mohan",
  "VAS contact number": 9494058353,
  "Inv No": "FE\/ILR\/ATP\/058",
  "Invoice Date": "6-Feb-24",
  "ILR .SL.No": 3712231341,
  "IoT \nNumber": "AA 0028",
  "Delivery Date": "7-Feb-24",
  "lat": 14.2926392185,
  "lng": 77.0350751513787
 },
 {
  "S.No.": 44,
  "District": "ANANTAPUR",
  "Location Name \n(Name of the VD)": "VD Malayanur",
  "Mandal": "Kundurpi",
  "Village": " Malayanur",
  "VAS Name": "Dr B Niveditha",
  "VAS contact number": 9494058353,
  "Inv No": "FE\/ILR\/ATP\/059",
  "Invoice Date": "6-Feb-24",
  "ILR .SL.No": 3712231337,
  "IoT \nNumber": "AA 1651",
  "Delivery Date": "7-Feb-24",
  "lat": 14.2631484,
  "lng": 76.9758274
 },
 {
  "S.No.": 45,
  "District": "ANANTAPUR",
  "Location Name \n(Name of the VD)": "VH kanekal",
  "Mandal": " kanekal",
  "Village": " kanekal",
  "VAS Name": "Dr B Ramesh Naik",
  "VAS contact number": 9649502858,
  "Inv No": "FE\/ILR\/ATP\/060",
  "Invoice Date": "6-Feb-24",
  "ILR .SL.No": 3712231344,
  "IoT \nNumber": "AA 1702",
  "Delivery Date": "7-Feb-24",
  "lat": 14.8048632,
  "lng": 77.0730524
 },
 {
  "S.No.": 46,
  "District": "ANANTAPUR",
  "Location Name \n(Name of the VD)": "AVH GUNTAKAL",
  "Mandal": "GUNTAKAL",
  "Village": "GUNTAKAL",
  "VAS Name": "Dr P Sumitra",
  "VAS contact number": 7989985276,
  "Inv No": "FE\/ILR\/ATP\/061",
  "Invoice Date": "9-Feb-24",
  "ILR .SL.No": 3712231396,
  "IoT \nNumber": "AA 2422",
  "Delivery Date": "10-Feb-24",
  "lat": 15.1660706,
  "lng": 77.3769836
 },
 {
  "S.No.": 47,
  "District": "ANANTAPUR",
  "Location Name \n(Name of the VD)": "VH Kambadur",
  "Mandal": "Kambadur",
  "Village": " Kambadur",
  "VAS Name": "Dr S Sujana Sree",
  "VAS contact number": 8074848994,
  "Inv No": "FE\/ILR\/ATP\/062",
  "Invoice Date": "7-Feb-24",
  "ILR .SL.No": 3712231288,
  "IoT \nNumber": "AA  1898",
  "Delivery Date": "8-Feb-24",
  "lat": 14.3457128628227,
  "lng": 77.2301889285951
 },
 {
  "S.No.": 48,
  "District": "Chittoor",
  "Location Name \n(Name of the VD)": "RLU Goduguchintha",
  "Mandal": "Puthalapattu",
  "Village": "Goduguchintha",
  "VAS Name": "K. Geetha",
  "VAS contact number": 9676140215,
  "Inv No": "FE\/ILR\/CHT\/104",
  "Invoice Date": "8-Feb-24",
  "ILR .SL.No": 3712231417,
  "IoT \nNumber": "AA 0924",
  "Delivery Date": "9-Feb-24",
  "lat": 13.3869749,
  "lng": 79.1463868
 },
 {
  "S.No.": 49,
  "District": "Chittoor",
  "Location Name \n(Name of the VD)": "RLU Kondakindhapalli",
  "Mandal": "Puthalapattu",
  "Village": "Kondakindhapalli",
  "VAS Name": "S. Shakeela",
  "VAS contact number": 9966436886,
  "Inv No": "FE\/ILR\/CHT\/105",
  "Invoice Date": "8-Feb-24",
  "ILR .SL.No": 3712231415,
  "IoT \nNumber": "AA 1858",
  "Delivery Date": "9-Feb-24",
  "lat": 13.3462922,
  "lng": 79.0930214
 },
 {
  "S.No.": 50,
  "District": "Chittoor",
  "Location Name \n(Name of the VD)": "RLU Ugranampalli",
  "Mandal": "Penumuru",
  "Village": "Ugranampalli",
  "VAS Name": "Vasanth Kumar",
  "VAS contact number": 9440728748,
  "Inv No": "FE\/ILR\/CHT\/106",
  "Invoice Date": "8-Feb-24",
  "ILR .SL.No": 3712231427,
  "IoT \nNumber": "AA 0996",
  "Delivery Date": "9-Feb-24",
  "lat": 13.3218281,
  "lng": 79.1873009999999
 },
 {
  "S.No.": 51,
  "District": "Chittoor",
  "Location Name \n(Name of the VD)": "RLU L.K.P. Vandlavooru",
  "Mandal": "Penumuru",
  "Village": "L.k.p.vandlavooru",
  "VAS Name": "M Nandini",
  "VAS contact number": 9949129464,
  "Inv No": "FE\/ILR\/CHT\/107",
  "Invoice Date": "8-Feb-24",
  "ILR .SL.No": 3712231358,
  "IoT \nNumber": "AA 2162",
  "Delivery Date": "9-Feb-24",
  "lat": 13.3677436,
  "lng": 79.1957638
 },
 {
  "S.No.": 52,
  "District": "Chittoor",
  "Location Name \n(Name of the VD)": "RLU Erracheruvupalli",
  "Mandal": "Puthalapattu",
  "Village": "Erracheruvupalli",
  "VAS Name": "P Charan Kumar",
  "VAS contact number": 9666218901,
  "Inv No": "FE\/ILR\/CHT\/108",
  "Invoice Date": "8-Feb-24",
  "ILR .SL.No": 3712231418,
  "IoT \nNumber": "AA 0548",
  "Delivery Date": "9-Feb-24",
  "lat": 13.3462922,
  "lng": 79.0930214
 },
 {
  "S.No.": 53,
  "District": "Chittoor",
  "Location Name \n(Name of the VD)": "AVH Palamaner",
  "Mandal": "Palamaner",
  "Village": "Palamaner",
  "VAS Name": "Kodandapani",
  "VAS contact number": 9440266857,
  "Inv No": "FE\/ILR\/CHT\/109",
  "Invoice Date": "8-Feb-24",
  "ILR .SL.No": 3712231413,
  "IoT \nNumber": "AA 0518",
  "Delivery Date": "9-Feb-24",
  "lat": 13.2008143,
  "lng": 78.7440118
 },
 {
  "S.No.": 54,
  "District": "Chittoor",
  "Location Name \n(Name of the VD)": "VD Kangundi",
  "Mandal": "Kuppam",
  "Village": "Kangundi",
  "VAS Name": "Gopi",
  "VAS contact number": 8328356901,
  "Inv No": "FE\/ILR\/CHT\/110",
  "Invoice Date": "8-Feb-24",
  "ILR .SL.No": 3712231405,
  "IoT \nNumber": "AA 1999",
  "Delivery Date": "9-Feb-24",
  "lat": 12.767049,
  "lng": 78.4339828999999
 },
 {
  "S.No.": 55,
  "District": "Chittoor",
  "Location Name \n(Name of the VD)": "VD Settipalli",
  "Mandal": "Gudupalli",
  "Village": "Settipalli",
  "VAS Name": "Sudharshan Reddy",
  "VAS contact number": 9704276203,
  "Inv No": "FE\/ILR\/CHT\/111",
  "Invoice Date": "8-Feb-24",
  "ILR .SL.No": 3712231414,
  "IoT \nNumber": "AA 1093",
  "Delivery Date": "9-Feb-24",
  "lat": 12.7846798,
  "lng": 78.353822
 },
 {
  "S.No.": 56,
  "District": "Chittoor",
  "Location Name \n(Name of the VD)": "AVH V.KOTA",
  "Mandal": "V.KOTA",
  "Village": "V.KOTA",
  "VAS Name": "Hema Giri",
  "VAS contact number": "94408 73568",
  "Inv No": "FE\/ILR\/CHT\/112",
  "Invoice Date": "8-Feb-24",
  "ILR .SL.No": 3712231410,
  "IoT \nNumber": "AA 0133",
  "Delivery Date": "9-Feb-24",
  "lat": 13.0017947,
  "lng": 78.4798741
 },
 {
  "S.No.": 57,
  "District": "Chittoor",
  "Location Name \n(Name of the VD)": "VD MuddaramDoddi",
  "Mandal": "V.KOTA",
  "Village": "MuddaramDoddi",
  "VAS Name": "Anitha",
  "VAS contact number": "83283 56901",
  "Inv No": "FE\/ILR\/CHT\/113",
  "Invoice Date": "8-Feb-24",
  "ILR .SL.No": 3712231426,
  "IoT \nNumber": "AA 0196",
  "Delivery Date": "9-Feb-24",
  "lat": 13.0017947,
  "lng": 78.4798741
 },
 {
  "S.No.": 58,
  "District": "Chittoor",
  "Location Name \n(Name of the VD)": "VD S.Bandapalli",
  "Mandal": "V.KOTA",
  "Village": "S.Bandapalli",
  "VAS Name": "Vani",
  "VAS contact number": "93981 83827",
  "Inv No": "FE\/ILR\/CHT\/114",
  "Invoice Date": "8-Feb-24",
  "ILR .SL.No": 3712231424,
  "IoT \nNumber": "AA 1327",
  "Delivery Date": "9-Feb-24",
  "lat": 13.0011676,
  "lng": 78.4794568
 },
 {
  "S.No.": 59,
  "District": "Chittoor",
  "Location Name \n(Name of the VD)": "VD Peddaupparapalli",
  "Mandal": "Somala",
  "Village": "Peddaupparapalli",
  "VAS Name": "Md. Shafi",
  "VAS contact number": 9705451819,
  "Inv No": "FE\/ILR\/CHT\/115",
  "Invoice Date": "9-Feb-24",
  "ILR .SL.No": 3712231393,
  "IoT \nNumber": "AA 1794",
  "Delivery Date": "10-Feb-24",
  "lat": 13.3924439,
  "lng": 78.7737913
 },
 {
  "S.No.": 60,
  "District": "Chittoor",
  "Location Name \n(Name of the VD)": "RLU Sadakuppam",
  "Mandal": "Bangarupalem",
  "Village": "Sadakuppam",
  "VAS Name": "J. Venkateswarulu",
  "VAS contact number": 9908747361,
  "Inv No": "FE\/ILR\/CHT\/116",
  "Invoice Date": "8-Feb-24",
  "ILR .SL.No": 3712231420,
  "IoT \nNumber": "AA 0456",
  "Delivery Date": "9-Feb-24",
  "lat": 13.2650353,
  "lng": 78.9348349999999
 },
 {
  "S.No.": 61,
  "District": "Chittoor",
  "Location Name \n(Name of the VD)": "RLU Sankranthipalli",
  "Mandal": "Bangarupalem",
  "Village": "Sankranthipalli",
  "VAS Name": "T. Govinda Raju",
  "VAS contact number": 9985039125,
  "Inv No": "FE\/ILR\/CHT\/117",
  "Invoice Date": "8-Feb-24",
  "ILR .SL.No": 3712231419,
  "IoT \nNumber": "AA 1652",
  "Delivery Date": "9-Feb-24",
  "lat": 13.1954511,
  "lng": 78.9119587
 },
 {
  "S.No.": 62,
  "District": "Chittoor",
  "Location Name \n(Name of the VD)": "RLU Kasiralla",
  "Mandal": "Yadamari",
  "Village": "Kasiralla",
  "VAS Name": "Nagendra Naik",
  "VAS contact number": 9491605253,
  "Inv No": "FE\/ILR\/CHT\/118",
  "Invoice Date": "8-Feb-24",
  "ILR .SL.No": 3712231422,
  "IoT \nNumber": "AA 0106",
  "Delivery Date": "9-Feb-24",
  "lat": 13.1251643,
  "lng": 79.0108212
 },
 {
  "S.No.": 63,
  "District": "Chittoor",
  "Location Name \n(Name of the VD)": "RLU Narravooru",
  "Mandal": "Yadamari",
  "Village": "Narravooru",
  "VAS Name": "S Subramanyam",
  "VAS contact number": 8074766496,
  "Inv No": "FE\/ILR\/CHT\/119",
  "Invoice Date": "8-Feb-24",
  "ILR .SL.No": 3712231423,
  "IoT \nNumber": "AA 1669",
  "Delivery Date": "9-Feb-24",
  "lat": 13.1590292,
  "lng": 79.0387162
 },
 {
  "S.No.": 64,
  "District": "Chittoor",
  "Location Name \n(Name of the VD)": "RLU L.B.puram",
  "Mandal": "Chittoor",
  "Village": "L.b.puram",
  "VAS Name": "Dr.M.Chandana Priya",
  "VAS contact number": 9550671945,
  "Inv No": "FE\/ILR\/CHT\/120",
  "Invoice Date": "9-Feb-24",
  "ILR .SL.No": 3712231391,
  "IoT \nNumber": "AA 0904",
  "Delivery Date": "10-Feb-24",
  "lat": 13.1710442,
  "lng": 79.1302621
 },
 {
  "S.No.": 65,
  "District": "Chittoor",
  "Location Name \n(Name of the VD)": "RLU Murakambattu",
  "Mandal": "Chittoor",
  "Village": "Murakambattu",
  "VAS Name": "Dr A Mohan Ravi Kumar",
  "VAS contact number": 7013600730,
  "Inv No": "FE\/ILR\/CHT\/121",
  "Invoice Date": "9-Feb-24",
  "ILR .SL.No": 3712231401,
  "IoT \nNumber": "AA 0692",
  "Delivery Date": "10-Feb-24",
  "lat": 13.2465814,
  "lng": 79.118145
 },
 {
  "S.No.": 66,
  "District": "Chittoor",
  "Location Name \n(Name of the VD)": "RLU Bangareddypalli",
  "Mandal": "Chittoor",
  "Village": "Bangareddypalli",
  "VAS Name": "Abdul Rehman",
  "VAS contact number": 9441428789,
  "Inv No": "FE\/ILR\/CHT\/122",
  "Invoice Date": "9-Feb-24",
  "ILR .SL.No": 3712231402,
  "IoT \nNumber": "AA 1594",
  "Delivery Date": "10-Feb-24",
  "lat": 13.210361255958,
  "lng": 79.1620920411535
 },
 {
  "S.No.": 67,
  "District": "Chittoor",
  "Location Name \n(Name of the VD)": "RLU Cheelapalli",
  "Mandal": "Gudipala",
  "Village": "Cheelapalli",
  "VAS Name": "DR K V SRINIVAS (AD)",
  "VAS contact number": 8501871806,
  "Inv No": "FE\/ILR\/CHT\/123",
  "Invoice Date": "9-Feb-24",
  "ILR .SL.No": 3712231399,
  "IoT \nNumber": "AA 1674",
  "Delivery Date": "10-Feb-24",
  "lat": 13.140594,
  "lng": 79.1643771
 },
 {
  "S.No.": 68,
  "District": "Chittoor",
  "Location Name \n(Name of the VD)": "RLU Kothapalli",
  "Mandal": "Gudipala",
  "Village": "Kothapalli",
  "VAS Name": "DR M JAYASREE",
  "VAS contact number": 9182449185,
  "Inv No": "FE\/ILR\/CHT\/124",
  "Invoice Date": "9-Feb-24",
  "ILR .SL.No": 3712231388,
  "IoT \nNumber": "AA1894",
  "Delivery Date": "10-Feb-24",
  "lat": 13.1122382,
  "lng": 79.114473
 },
 {
  "S.No.": 69,
  "District": "Chittoor",
  "Location Name \n(Name of the VD)": "RLU Nampalli",
  "Mandal": "Irala",
  "Village": "Nampalli",
  "VAS Name": "DR PAVANI ",
  "VAS contact number": 9492483971,
  "Inv No": "FE\/ILR\/CHT\/125",
  "Invoice Date": "9-Feb-24",
  "ILR .SL.No": 3712231392,
  "IoT \nNumber": "AA 2362",
  "Delivery Date": "10-Feb-24",
  "lat": 13.3856589,
  "lng": 78.984157
 },
 {
  "S.No.": 70,
  "District": "Chittoor",
  "Location Name \n(Name of the VD)": "RLU Aragonda",
  "Mandal": "Thavanampalle",
  "Village": "Aragonda",
  "VAS Name": "Dr M Jayasree",
  "VAS contact number": 9703290413,
  "Inv No": "FE\/ILR\/CHT\/126",
  "Invoice Date": "9-Feb-24",
  "ILR .SL.No": 3712231389,
  "IoT \nNumber": "AA 1685",
  "Delivery Date": "10-Feb-24",
  "lat": 13.2812607,
  "lng": 78.9563999
 },
 {
  "S.No.": 71,
  "District": "Chittoor",
  "Location Name \n(Name of the VD)": "RLU G.gollapalli",
  "Mandal": "Thavanampalle",
  "Village": "G.gollapalli",
  "VAS Name": "Dr.K.Kodandaramaiah",
  "VAS contact number": 8919560675,
  "Inv No": "FE\/ILR\/CHT\/127",
  "Invoice Date": "9-Feb-24",
  "ILR .SL.No": 3712231390,
  "IoT \nNumber": "AA 1896",
  "Delivery Date": "10-Feb-24",
  "lat": 13.355162786231,
  "lng": 78.9307331125548
 },
 {
  "S.No.": 72,
  "District": "Chittoor",
  "Location Name \n(Name of the VD)": "RLU M kotur",
  "Mandal": "Palamaner",
  "Village": "M kotur",
  "VAS Name": "Girija",
  "VAS contact number": 8096582322,
  "Inv No": "FE\/ILR\/CHT\/128",
  "Invoice Date": "8-Feb-24",
  "ILR .SL.No": 3712231398,
  "IoT \nNumber": "AA  2076",
  "Delivery Date": "9-Feb-24",
  "lat": 13.186542605686,
  "lng": 78.7327105081026
 },
 {
  "S.No.": 73,
  "District": "Chittoor",
  "Location Name \n(Name of the VD)": "RLU Mangalampeta",
  "Mandal": "Pulicherla",
  "Village": "Mangalampeta",
  "VAS Name": "John Salmon",
  "VAS contact number": 9866853718,
  "Inv No": "FE\/ILR\/CHT\/129",
  "Invoice Date": "8-Feb-24",
  "ILR .SL.No": 3712231421,
  "IoT \nNumber": "AA 1586",
  "Delivery Date": "9-Feb-24",
  "lat": 13.5698928,
  "lng": 79.093554
 },
 {
  "S.No.": 74,
  "District": "YSR KADAPA",
  "Location Name \n(Name of the VD)": "VH SIMHADRIPURAM",
  "Mandal": "SIMHADRIPURAM",
  "Village": "SIMHADRIPURAM",
  "VAS Name": "Dr K. Ramachandraiah",
  "VAS contact number": 9849391451,
  "Inv No": "FE\/ILR\/KDP\/068",
  "Invoice Date": "5-Feb-24",
  "ILR .SL.No": 3712231383,
  "IoT \nNumber": "AA 1091",
  "Delivery Date": "6-Feb-24",
  "lat": 14.6190069,
  "lng": 78.1645408999999
 },
 {
  "S.No.": 75,
  "District": "YSR KADAPA",
  "Location Name \n(Name of the VD)": "RLU MUTHULURUPADU",
  "Mandal": "KHAJIPET",
  "Village": "MUTHULURUPADU",
  "VAS Name": "Dr.G.Ravi Babu",
  "VAS contact number": 7780640777,
  "Inv No": "FE\/ILR\/KDP\/069",
  "Invoice Date": "4-Feb-24",
  "ILR .SL.No": 3712231314,
  "IoT \nNumber": "AA 1768",
  "Delivery Date": "5-Feb-24",
  "lat": 14.6587411,
  "lng": 78.7532884
 },
 {
  "S.No.": 76,
  "District": "YSR KADAPA",
  "Location Name \n(Name of the VD)": "RLU BAYANAPALLI",
  "Mandal": "CHENNUR",
  "Village": "BAYANAPALLI",
  "VAS Name": "Dr Hemanth Kumar",
  "VAS contact number": 9885225456,
  "Inv No": "FE\/ILR\/KDP\/070",
  "Invoice Date": "6-Feb-24",
  "ILR .SL.No": 3712231335,
  "IoT \nNumber": "AA 0875",
  "Delivery Date": "7-Feb-24",
  "lat": 14.5906958112099,
  "lng": 78.8144146531708
 },
 {
  "S.No.": 77,
  "District": "YSR KADAPA",
  "Location Name \n(Name of the VD)": "RLU Obulam Palli",
  "Mandal": "CHENNUR",
  "Village": "Obulam Palli",
  "VAS Name": "Dr.R.Baby Steffi",
  "VAS contact number": 9866999579,
  "Inv No": "FE\/ILR\/KDP\/071",
  "Invoice Date": "6-Feb-24",
  "ILR .SL.No": 3712231349,
  "IoT \nNumber": "AA 1257",
  "Delivery Date": "7-Feb-24",
  "lat": 14.4349689979042,
  "lng": 78.7461304720406
 },
 {
  "S.No.": 78,
  "District": "YSR KADAPA",
  "Location Name \n(Name of the VD)": "RLU EGUVAPALLI",
  "Mandal": "PENDLIMARRI",
  "Village": "EGUVAPALLI",
  "VAS Name": "E.Thirupathamma",
  "VAS contact number": 9866222045,
  "Inv No": "FE\/ILR\/KDP\/072",
  "Invoice Date": "4-Feb-24",
  "ILR .SL.No": 3712231326,
  "IoT \nNumber": "AA 1860",
  "Delivery Date": "5-Feb-24",
  "lat": 14.5567759830504,
  "lng": 79.0323033628783
 },
 {
  "S.No.": 79,
  "District": "YSR KADAPA",
  "Location Name \n(Name of the VD)": "RLU T. Sallagirigela",
  "Mandal": "Porumamilla",
  "Village": "T. Sallagirigela",
  "VAS Name": "P.Sreedevi",
  "VAS contact number": 9440673682,
  "Inv No": "FE\/ILR\/KDP\/073",
  "Invoice Date": "4-Feb-24",
  "ILR .SL.No": 3712231323,
  "IoT \nNumber": "AA 1791",
  "Delivery Date": "5-Feb-24",
  "lat": 15.0027098,
  "lng": 78.9901273
 },
 {
  "S.No.": 80,
  "District": "YSR KADAPA",
  "Location Name \n(Name of the VD)": "RLU Chadipiralla",
  "Mandal": "Kamalapuram",
  "Village": "Chadipiralla",
  "VAS Name": "Dr.D.P.Parthasarthi",
  "VAS contact number": 6305638905,
  "Inv No": "FE\/ILR\/KDP\/074",
  "Invoice Date": "5-Feb-24",
  "ILR .SL.No": 3712231385,
  "IoT \nNumber": "AA 1944",
  "Delivery Date": "6-Feb-24",
  "lat": 15.0025015806316,
  "lng": 78.990308228612
 },
 {
  "S.No.": 81,
  "District": "YSR KADAPA",
  "Location Name \n(Name of the VD)": "RLU Nidizivi",
  "Mandal": "Yerraguntla",
  "Village": " Nidizivi",
  "VAS Name": " Dr. V. Durga prasanna babu",
  "VAS contact number": 8099671437,
  "Inv No": "FE\/ILR\/KDP\/075",
  "Invoice Date": "5-Feb-24",
  "ILR .SL.No": 3712231379,
  "IoT \nNumber": "AA 1078",
  "Delivery Date": "6-Feb-24",
  "lat": 14.6380691850294,
  "lng": 78.5407405920194
 },
 {
  "S.No.": 82,
  "District": "YSR KADAPA",
  "Location Name \n(Name of the VD)": "RLU Payasam Palli",
  "Mandal": "Yerraguntla",
  "Village": " Payasam Palli",
  "VAS Name": "K.Rama mohan",
  "VAS contact number": 8099671437,
  "Inv No": "FE\/ILR\/KDP\/076",
  "Invoice Date": "4-Feb-24",
  "ILR .SL.No": 3712231315,
  "IoT \nNumber": "AA 1658",
  "Delivery Date": "5-Feb-24",
  "lat": "14째38'45.7",
  "lng": "78째30'05.9"
 },
 {
  "S.No.": 83,
  "District": "YSR KADAPA",
  "Location Name \n(Name of the VD)": "RLU Uruturu",
  "Mandal": "Yerraguntla",
  "Village": "Uruturu",
  "VAS Name": "Dr. P. Venkata Ramana",
  "VAS contact number": 8099671437,
  "Inv No": "FE\/ILR\/KDP\/077",
  "Invoice Date": "4-Feb-24",
  "ILR .SL.No": 3712231307,
  "IoT \nNumber": "AA 1663",
  "Delivery Date": "5-Feb-24",
  "lat": "14째33'23.4",
  "lng": " 78째33'08.3"
 },
 {
  "S.No.": 84,
  "District": "YSR KADAPA",
  "Location Name \n(Name of the VD)": "RLU Palagiri",
  "Mandal": "Yerraguntla",
  "Village": " Palagiri",
  "VAS Name": "Dr. Maldanna ",
  "VAS contact number": 8099671437,
  "Inv No": "FE\/ILR\/KDP\/078",
  "Invoice Date": "4-Feb-24",
  "ILR .SL.No": 3712231317,
  "IoT \nNumber": "AA 1801",
  "Delivery Date": "5-Feb-24",
  "lat": 14.4586315,
  "lng": 78.4453532
 },
 {
  "S.No.": 85,
  "District": "YSR KADAPA",
  "Location Name \n(Name of the VD)": "RLU Tangedu palli",
  "Mandal": "Yerraguntla",
  "Village": " Tangedu palli",
  "VAS Name": "Dr. M Pradeep Kumar",
  "VAS contact number": 8099671437,
  "Inv No": "FE\/ILR\/KDP\/079",
  "Invoice Date": "4-Feb-24",
  "ILR .SL.No": 3712231309,
  "IoT \nNumber": "AA 1655",
  "Delivery Date": "5-Feb-24",
  "lat": 14.6375051,
  "lng": 78.5406992
 },
 {
  "S.No.": 86,
  "District": "YSR KADAPA",
  "Location Name \n(Name of the VD)": "RLU Karamlavaripalli",
  "Mandal": "Jammalamadugu",
  "Village": " Karamlavaripalli",
  "VAS Name": "Dr Soma Shekar Goud",
  "VAS contact number": 8008245566,
  "Inv No": "FE\/ILR\/KDP\/080",
  "Invoice Date": "4-Feb-24",
  "ILR .SL.No": 3712231305,
  "IoT \nNumber": "AA 1880",
  "Delivery Date": "5-Feb-24",
  "lat": 14.3904342989491,
  "lng": 78.478012765865
 },
 {
  "S.No.": 87,
  "District": "YSR KADAPA",
  "Location Name \n(Name of the VD)": "RLU Chinnakomerla",
  "Mandal": "Jammalamadugu",
  "Village": " Chinnakomerla",
  "VAS Name": "Dr.D.Venkata subbaiah ",
  "VAS contact number": 8008245566,
  "Inv No": "FE\/ILR\/KDP\/081",
  "Invoice Date": "4-Feb-24",
  "ILR .SL.No": 3712231306,
  "IoT \nNumber": "AA 0663",
  "Delivery Date": "5-Feb-24",
  "lat": 14.8896880043461,
  "lng": 78.3697378203263
 },
 {
  "S.No.": 88,
  "District": "YSR KADAPA",
  "Location Name \n(Name of the VD)": "VH Jammalamadugu",
  "Mandal": "Jammalamadugu",
  "Village": "Jammalamadugu",
  "VAS Name": "Dr.Ashok kumar ",
  "VAS contact number": 8008245566,
  "Inv No": "FE\/ILR\/KDP\/082",
  "Invoice Date": "4-Feb-24",
  "ILR .SL.No": 3712231304,
  "IoT \nNumber": "AA 1722",
  "Delivery Date": "5-Feb-24",
  "lat": 14.8448555,
  "lng": 78.3824214999999
 },
 {
  "S.No.": 89,
  "District": "Kurnool",
  "Location Name \n(Name of the VD)": "O\/o JD (AH) Kurnool",
  "Mandal": "Kurnool",
  "Village": "KURNOOL VPC CAMPUS",
  "VAS Name": "Dr K Usha\n",
  "VAS contact number": 9989997102,
  "Inv No": "FE\/ILR\/KNL\/048",
  "Invoice Date": "6-Feb-24",
  "ILR .SL.No": 3712231343,
  "IoT \nNumber": "AA 1952",
  "Delivery Date": "7-Feb-24",
  "lat": 14.8443584329479,
  "lng": 78.3828456294478
 },
 {
  "S.No.": 90,
  "District": "Kurnool",
  "Location Name \n(Name of the VD)": "ADDL Kurnool",
  "Mandal": "Kurnool",
  "Village": "KURNOOL VPC CAMPUS",
  "VAS Name": "Dr M Benny Hemanth Kumar",
  "VAS contact number": 9989997251,
  "Inv No": "FE\/ILR\/KNL\/049",
  "Invoice Date": "6-Feb-24",
  "ILR .SL.No": 3712231425,
  "IoT \nNumber": "AA 1105",
  "Delivery Date": "7-Feb-24",
  "lat": 15.8346395,
  "lng": 78.0471781999999
 },
 {
  "S.No.": 91,
  "District": "Kurnool",
  "Location Name \n(Name of the VD)": "VPC Kurnool",
  "Mandal": "Kurnool",
  "Village": "KURNOOL VPC CAMPUS",
  "VAS Name": "Dr P Sandhya Rani",
  "VAS contact number": 7702036219,
  "Inv No": "FE\/ILR\/KNL\/050",
  "Invoice Date": "6-Feb-24",
  "ILR .SL.No": 3712231329,
  "IoT \nNumber": "AA 1790",
  "Delivery Date": "7-Feb-24",
  "lat": 15.8346395,
  "lng": 78.0471781999999
 },
 {
  "S.No.": 92,
  "District": "Kurnool",
  "Location Name \n(Name of the VD)": "O\/o DD (AH) Kunool",
  "Mandal": "Kurnool",
  "Village": "KURNOOL VPC CAMPUS",
  "VAS Name": "Dr N Ravi Prakash Reddy",
  "VAS contact number": 7093898361,
  "Inv No": "FE\/ILR\/KNL\/051",
  "Invoice Date": "6-Feb-24",
  "ILR .SL.No": 3712231416,
  "IoT \nNumber": "AA 0876",
  "Delivery Date": "7-Feb-24",
  "lat": 15.8369060722443,
  "lng": 78.0409512691948
 },
 {
  "S.No.": 93,
  "District": "Kurnool",
  "Location Name \n(Name of the VD)": "VH Gudur",
  "Mandal": "Gudur",
  "Village": "Gudur",
  "VAS Name": "Dr.M.Rajasekhar",
  "VAS contact number": 8897103123,
  "Inv No": "FE\/ILR\/KNL\/052",
  "Invoice Date": "8-Feb-24",
  "ILR .SL.No": 3712231397,
  "IoT \nNumber": "AA 1766",
  "Delivery Date": "9-Feb-24",
  "lat": 15.7751126,
  "lng": 77.8053511999999
 },
 {
  "S.No.": 94,
  "District": "Kurnool",
  "Location Name \n(Name of the VD)": "VD Gargeyapuram",
  "Mandal": "Kurnool",
  "Village": "Gargeyapuram",
  "VAS Name": "Dr.G.Venkateswarlu",
  "VAS contact number": 9866871048,
  "Inv No": "FE\/ILR\/KNL\/053",
  "Invoice Date": "7-Feb-24",
  "ILR .SL.No": 3712231273,
  "IoT \nNumber": "AA  0312",
  "Delivery Date": "8-Feb-24",
  "lat": 15.7796205,
  "lng": 78.1443285
 },
 {
  "S.No.": 95,
  "District": "Kurnool",
  "Location Name \n(Name of the VD)": "VD Budavarapeta",
  "Mandal": "Kurnool",
  "Village": "Budavarapeta",
  "VAS Name": "Dr.M.Mahammad Ali",
  "VAS contact number": 9640144566,
  "Inv No": "FE\/ILR\/KNL\/054",
  "Invoice Date": "7-Feb-24",
  "ILR .SL.No": 3712231271,
  "IoT \nNumber": "AA  1914",
  "Delivery Date": "8-Feb-24",
  "lat": 15.8211293,
  "lng": 78.0417375
 },
 {
  "S.No.": 96,
  "District": "Kurnool",
  "Location Name \n(Name of the VD)": "VH Kallur ",
  "Mandal": "Kallur",
  "Village": "Kallur",
  "VAS Name": "Dr.P siva kumar ",
  "VAS contact number": 6304622109,
  "Inv No": "FE\/ILR\/KNL\/055",
  "Invoice Date": "7-Feb-24",
  "ILR .SL.No": 3712231292,
  "IoT \nNumber": "AA  1060",
  "Delivery Date": "8-Feb-24",
  "lat": 15.8186154628241,
  "lng": 78.0275200238006
 },
 {
  "S.No.": 97,
  "District": "Kurnool",
  "Location Name \n(Name of the VD)": "RLU Peddapadu",
  "Mandal": "Kallur",
  "Village": "Peddapadu",
  "VAS Name": "G.Sudhakar",
  "VAS contact number": 9160062721,
  "Inv No": "FE\/ILR\/KNL\/056",
  "Invoice Date": "7-Feb-24",
  "ILR .SL.No": 3712231290,
  "IoT \nNumber": "AA  1852",
  "Delivery Date": "8-Feb-24",
  "lat": 15.7949387350535,
  "lng": 78.0339300146094
 },
 {
  "S.No.": 98,
  "District": "Kurnool",
  "Location Name \n(Name of the VD)": "RLU Nannur",
  "Mandal": "Orvkal",
  "Village": "Nannur",
  "VAS Name": "Dr  K Venkatesh ",
  "VAS contact number": 9989397966,
  "Inv No": "FE\/ILR\/KNL\/057",
  "Invoice Date": "8-Feb-24",
  "ILR .SL.No": 3712231342,
  "IoT \nNumber": "AA 1670",
  "Delivery Date": "9-Feb-24",
  "lat": 15.7184024,
  "lng": 78.0937170999999
 },
 {
  "S.No.": 99,
  "District": "Kurnool",
  "Location Name \n(Name of the VD)": "RLU Loddipalli",
  "Mandal": "Orvkal",
  "Village": "Loddipalli",
  "VAS Name": "Dr. K Kamalakar",
  "VAS contact number": 9515304131,
  "Inv No": "FE\/ILR\/KNL\/058",
  "Invoice Date": "8-Feb-24",
  "ILR .SL.No": 3712231328,
  "IoT \nNumber": "AA 1467",
  "Delivery Date": "9-Feb-24",
  "lat": 15.6852091,
  "lng": 78.0656841999999
 },
 {
  "S.No.": 100,
  "District": "Kurnool",
  "Location Name \n(Name of the VD)": "RLU Ramalakota",
  "Mandal": "Veldhurthi",
  "Village": "Ramalakota",
  "VAS Name": "Dr K Ramesh Babu",
  "VAS contact number": 9550616592,
  "Inv No": "FE\/ILR\/KNL\/059",
  "Invoice Date": "8-Feb-24",
  "ILR .SL.No": 3712231409,
  "IoT \nNumber": "AA 1657",
  "Delivery Date": "9-Feb-24",
  "lat": 15.5705742,
  "lng": 78.0009861
 },
 {
  "S.No.": 101,
  "District": "Kurnool",
  "Location Name \n(Name of the VD)": "VH Gonegandla",
  "Mandal": "Gonegandla",
  "Village": "Gonegandla",
  "VAS Name": "Dr K Bharathi Devi",
  "VAS contact number": 9849085519,
  "Inv No": "FE\/ILR\/KNL\/060",
  "Invoice Date": "8-Feb-24",
  "ILR .SL.No": 3712231412,
  "IoT \nNumber": "AA 0220",
  "Delivery Date": "9-Feb-24",
  "lat": 15.7105641,
  "lng": 77.5932378
 },
 {
  "S.No.": 102,
  "District": "Kurnool",
  "Location Name \n(Name of the VD)": "VD H.Kairawadi",
  "Mandal": "Gonegandla",
  "Village": "H.Kaiarawadi",
  "VAS Name": "Dr D Chinna Babu",
  "VAS contact number": 9912175212,
  "Inv No": "FE\/ILR\/KNL\/061",
  "Invoice Date": "8-Feb-24",
  "ILR .SL.No": 3712231400,
  "IoT \nNumber": "AA 2204",
  "Delivery Date": "9-Feb-24",
  "lat": 15.7082927,
  "lng": 77.6443647
 },
 {
  "S.No.": 103,
  "District": "Kurnool",
  "Location Name \n(Name of the VD)": "O\/o DD (AH) Adoni",
  "Mandal": "Adoni",
  "Village": "Adoni",
  "VAS Name": "Dr D Chinna Babu",
  "VAS contact number": 8309608529,
  "Inv No": "FE\/ILR\/KNL\/062",
  "Invoice Date": "9-Feb-24",
  "ILR .SL.No": 3712231404,
  "IoT \nNumber": "AA 1679",
  "Delivery Date": "10-Feb-24",
  "lat": 15.6318824,
  "lng": 77.2758832999999
 },
 {
  "S.No.": 104,
  "District": "Kurnool",
  "Location Name \n(Name of the VD)": "VH ADONI",
  "Mandal": "Adoni",
  "Village": "Adoni",
  "VAS Name": "Dr E Raghu Balakrishna",
  "VAS contact number": 9505501552,
  "Inv No": "FE\/ILR\/KNL\/063",
  "Invoice Date": "9-Feb-24",
  "ILR .SL.No": 3712231403,
  "IoT \nNumber": "AA 1417",
  "Delivery Date": "10-Feb-24",
  "lat": 15.6318824,
  "lng": 77.2758832999999
 },
 {
  "S.No.": 105,
  "District": "Kurnool",
  "Location Name \n(Name of the VD)": "VD Virupapuram",
  "Mandal": "Adoni",
  "Village": "Virupapuram",
  "VAS Name": "Dr M Mohan Rao",
  "VAS contact number": 8920285217,
  "Inv No": "FE\/ILR\/KNL\/064",
  "Invoice Date": "9-Feb-24",
  "ILR .SL.No": 3712231408,
  "IoT \nNumber": "AA 0266",
  "Delivery Date": "10-Feb-24",
  "lat": 15.5675457,
  "lng": 77.3289468999999
 },
 {
  "S.No.": 106,
  "District": "Kurnool",
  "Location Name \n(Name of the VD)": "VD Holagunda",
  "Mandal": "Holagunda",
  "Village": "Holagunda",
  "VAS Name": "Dr.DC.Hussaini",
  "VAS contact number": 7036260581,
  "Inv No": "FE\/ILR\/KNL\/065",
  "Invoice Date": "9-Feb-24",
  "ILR .SL.No": 3712231407,
  "IoT \nNumber": "AA 1676",
  "Delivery Date": "10-Feb-24",
  "lat": 15.4863877,
  "lng": 77.0467484999999
 },
 {
  "S.No.": 107,
  "District": "Kurnool",
  "Location Name \n(Name of the VD)": "VH Aspari ",
  "Mandal": "Aspari ",
  "Village": "Aspari",
  "VAS Name": "Dr.AU.Hareesh",
  "VAS contact number": 9848411606,
  "Inv No": "FE\/ILR\/KNL\/066",
  "Invoice Date": "9-Feb-24",
  "ILR .SL.No": 3712231406,
  "IoT \nNumber": "AA 0257",
  "Delivery Date": "10-Feb-24",
  "lat": 15.4749131,
  "lng": 77.3875233
 },
 {
  "S.No.": 108,
  "District": "Kurnool",
  "Location Name \n(Name of the VD)": "VD Chintakunta ",
  "Mandal": "Halaharvi ",
  "Village": "Chintakunta ",
  "VAS Name": "Dr.A.U Hareesh",
  "VAS contact number": 9398230690,
  "Inv No": "FE\/ILR\/KNL\/067",
  "Invoice Date": "9-Feb-24",
  "ILR .SL.No": 3712231395,
  "IoT \nNumber": "AA 0781",
  "Delivery Date": "10-Feb-24",
  "lat": 15.8531489447018,
  "lng": 77.2830948025402
 },
 {
  "S.No.": 109,
  "District": "Kurnool",
  "Location Name \n(Name of the VD)": "VD Daivamdine",
  "Mandal": "Yemmiganur",
  "Village": "Daivamdine",
  "VAS Name": "Dr M Ramanjaneya Naik\n",
  "VAS contact number": 9505718423,
  "Inv No": "FE\/ILR\/KNL\/068",
  "Invoice Date": "9-Feb-24",
  "ILR .SL.No": 3712231394,
  "IoT \nNumber": "AA 1795",
  "Delivery Date": "10-Feb-24",
  "lat": 15.7734175,
  "lng": 77.4719551
 },
 {
  "S.No.": 110,
  "District": "Kurnool",
  "Location Name \n(Name of the VD)": "VD Mugathi",
  "Mandal": "Nandavaram",
  "Village": "Mugathi",
  "VAS Name": "Dr.K.Ashok Kumar ",
  "VAS contact number": 9502207510,
  "Inv No": "FE\/ILR\/KNL\/069",
  "Invoice Date": "7-Feb-24",
  "ILR .SL.No": 3712231287,
  "IoT \nNumber": "AA  1783",
  "Delivery Date": "8-Feb-24",
  "lat": 15.8248083012536,
  "lng": 77.5894593429072
 },
 {
  "S.No.": 111,
  "District": "Kurnool",
  "Location Name \n(Name of the VD)": "VD Halaharvi (Y)",
  "Mandal": "Nandavaram",
  "Village": "Halaharvi (Y)",
  "VAS Name": "Dr.G SRINIVASAREDDY",
  "VAS contact number": 7093898370,
  "Inv No": "FE\/ILR\/KNL\/070",
  "Invoice Date": "7-Feb-24",
  "ILR .SL.No": 3712231286,
  "IoT \nNumber": "AA  1539",
  "Delivery Date": "8-Feb-24",
  "lat": 15.8267656,
  "lng": 77.4465074
 },
 {
  "S.No.": 112,
  "District": "Kurnool",
  "Location Name \n(Name of the VD)": "VH Pathikonda ",
  "Mandal": "Pathikonda ",
  "Village": "Pathikonda ",
  "VAS Name": "Dr.S.Baba Fakruddin ",
  "VAS contact number": 7981814615,
  "Inv No": "FE\/ILR\/KNL\/071",
  "Invoice Date": "7-Feb-24",
  "ILR .SL.No": 3712231268,
  "IoT \nNumber": "AA  0902",
  "Delivery Date": "8-Feb-24",
  "lat": 15.3963743,
  "lng": 77.5007739
 },
 {
  "S.No.": 113,
  "District": "Kurnool",
  "Location Name \n(Name of the VD)": "VD Mukkella",
  "Mandal": "Tuggali",
  "Village": "Mukkella\n",
  "VAS Name": "Dr.P.Bhaskar",
  "VAS contact number": 8328033172,
  "Inv No": "FE\/ILR\/KNL\/072",
  "Invoice Date": "7-Feb-24",
  "ILR .SL.No": 3712231269,
  "IoT \nNumber": "AA  0959",
  "Delivery Date": "8-Feb-24",
  "lat": 15.4034297,
  "lng": 77.6339204
 },
 {
  "S.No.": 114,
  "District": "Nandyal",
  "Location Name \n(Name of the VD)": "AVH Chagalamarri",
  "Mandal": "Chagalamarri",
  "Village": "Chagalamarri",
  "VAS Name": "i\/C. Dr. K Kamalakar",
  "VAS contact number": 9490905717,
  "Inv No": "FE\/ILR\/NDL\/095",
  "Invoice Date": "5-Feb-24",
  "ILR .SL.No": 3712231374,
  "IoT \nNumber": "AA 1647",
  "Delivery Date": "6-Feb-24",
  "lat": 14.9625969,
  "lng": 78.5916452
 },
 {
  "S.No.": 115,
  "District": "Nandyal",
  "Location Name \n(Name of the VD)": "VD Chinnavangali",
  "Mandal": "Chagalamarri",
  "Village": "Chinnavangali",
  "VAS Name": "Dr.A.Konda Reddy",
  "VAS contact number": 9618815915,
  "Inv No": "FE\/ILR\/NDL\/096",
  "Invoice Date": "5-Feb-24",
  "ILR .SL.No": 3712231369,
  "IoT \nNumber": "AA 1507",
  "Delivery Date": "6-Feb-24",
  "lat": 14.9323053,
  "lng": 78.6483842999999
 },
 {
  "S.No.": 116,
  "District": "Nandyal",
  "Location Name \n(Name of the VD)": "AVH Rudravaram ",
  "Mandal": "Rudravaram ",
  "Village": "Rudravaram ",
  "VAS Name": "Dr.D.Srikala",
  "VAS contact number": 7981938101,
  "Inv No": "FE\/ILR\/NDL\/097",
  "Invoice Date": "6-Feb-24",
  "ILR .SL.No": 3712231368,
  "IoT \nNumber": "AA 1878",
  "Delivery Date": "7-Feb-24",
  "lat": 15.2413503,
  "lng": 78.6046022
 },
 {
  "S.No.": 117,
  "District": "Nandyal",
  "Location Name \n(Name of the VD)": "AVH Banaganapalle",
  "Mandal": "Banaganapalli",
  "Village": "Banaganapalli",
  "VAS Name": "Dr.M.Y.Varaprasad",
  "VAS contact number": 7032385169,
  "Inv No": "FE\/ILR\/NDL\/098",
  "Invoice Date": "6-Feb-24",
  "ILR .SL.No": 3712231357,
  "IoT \nNumber": "AA 1778",
  "Delivery Date": "7-Feb-24",
  "lat": 15.318372,
  "lng": 78.2279193
 },
 {
  "S.No.": 118,
  "District": "Nandyal",
  "Location Name \n(Name of the VD)": "VD Pasupula",
  "Mandal": "Banaganapalli",
  "Village": "Pasupula",
  "VAS Name": "Dr.B.Deepa Kumari",
  "VAS contact number": 9347833232,
  "Inv No": "FE\/ILR\/NDL\/099",
  "Invoice Date": "6-Feb-24",
  "ILR .SL.No": 3712231366,
  "IoT \nNumber": "AA 1593",
  "Delivery Date": "7-Feb-24",
  "lat": 15.3290953848631,
  "lng": 78.0063837062729
 },
 {
  "S.No.": 119,
  "District": "Nandyal",
  "Location Name \n(Name of the VD)": "VD Gundlasingavaram",
  "Mandal": "Owk",
  "Village": "Gundla Singavaram",
  "VAS Name": "Dr.K. Giddaiah ",
  "VAS contact number": 9347833232,
  "Inv No": "FE\/ILR\/NDL\/100",
  "Invoice Date": "6-Feb-24",
  "ILR .SL.No": 3712231364,
  "IoT \nNumber": "AA 1693",
  "Delivery Date": "7-Feb-24",
  "lat": 15.3243640593726,
  "lng": 78.0085095596255
 },
 {
  "S.No.": 120,
  "District": "Nandyal",
  "Location Name \n(Name of the VD)": "AVH Sanjamala",
  "Mandal": "Sanjamala",
  "Village": "Sanjamala",
  "VAS Name": "Dr.K.Ranga swamy",
  "VAS contact number": 8179102128,
  "Inv No": "FE\/ILR\/NDL\/101",
  "Invoice Date": "6-Feb-24",
  "ILR .SL.No": 3712231334,
  "IoT \nNumber": "AA 1792",
  "Delivery Date": "7-Feb-24",
  "lat": 15.1476221,
  "lng": 78.2994969
 },
 {
  "S.No.": 121,
  "District": "Nandyal",
  "Location Name \n(Name of the VD)": "VD Nossam",
  "Mandal": "Sanjamala",
  "Village": "Nossam",
  "VAS Name": "Dr E.Srihari Naik",
  "VAS contact number": 8919427870,
  "Inv No": "FE\/ILR\/NDL\/102",
  "Invoice Date": "6-Feb-24",
  "ILR .SL.No": 3712231351,
  "IoT \nNumber": "AA 2466",
  "Delivery Date": "7-Feb-24",
  "lat": 14.988053,
  "lng": 78.3917142999999
 },
 {
  "S.No.": 122,
  "District": "Nandyal",
  "Location Name \n(Name of the VD)": "VD Ankireddypalle",
  "Mandal": "Kolimigundla",
  "Village": "Ankireddypalle",
  "VAS Name": "Dr. G. Uday Kumar",
  "VAS contact number": 7702827978,
  "Inv No": "FE\/ILR\/NDL\/103",
  "Invoice Date": "6-Feb-24",
  "ILR .SL.No": 3712231355,
  "IoT \nNumber": "AA 1777",
  "Delivery Date": "7-Feb-24",
  "lat": 15.027459,
  "lng": 78.0483898999999
 },
 {
  "S.No.": 123,
  "District": "Nandyal",
  "Location Name \n(Name of the VD)": "AVH Allagadda",
  "Mandal": "Allagadda",
  "Village": "Allagadda",
  "VAS Name": "Dr. G. Uday Kumar",
  "VAS contact number": 9963913645,
  "Inv No": "FE\/ILR\/NDL\/104",
  "Invoice Date": "5-Feb-24",
  "ILR .SL.No": 3712231373,
  "IoT \nNumber": "AA 2021",
  "Delivery Date": "6-Feb-24",
  "lat": 15.1305389,
  "lng": 78.5127559
 },
 {
  "S.No.": 124,
  "District": "Nandyal",
  "Location Name \n(Name of the VD)": "VD P.Chintakunta",
  "Mandal": "Allagadda",
  "Village": "P.Chintakunta",
  "VAS Name": "Dr. Girija",
  "VAS contact number": 7093171135,
  "Inv No": "FE\/ILR\/NDL\/105",
  "Invoice Date": "5-Feb-24",
  "ILR .SL.No": 3712231371,
  "IoT \nNumber": "AA 1785",
  "Delivery Date": "6-Feb-24",
  "lat": 15.1500305,
  "lng": 78.4879809
 },
 {
  "S.No.": 125,
  "District": "Nandyal",
  "Location Name \n(Name of the VD)": "VD MUDDAVARAM",
  "Mandal": "Bethamcherla",
  "Village": "MUDDARAM",
  "VAS Name": "Dr. Somanath",
  "VAS contact number": 7032173561,
  "Inv No": "FE\/ILR\/NDL\/106",
  "Invoice Date": "6-Feb-24",
  "ILR .SL.No": 3712231348,
  "IoT \nNumber": "AA 1566",
  "Delivery Date": "7-Feb-24",
  "lat": 15.4990586,
  "lng": 78.0971991
 },
 {
  "S.No.": 126,
  "District": "Nandyal",
  "Location Name \n(Name of the VD)": "VD PESARAVAI",
  "Mandal": "Gadivemula",
  "Village": "PESARAVAI",
  "VAS Name": "Dr. Deepika",
  "VAS contact number": 7382596029,
  "Inv No": "FE\/ILR\/NDL\/107",
  "Invoice Date": "6-Feb-24",
  "ILR .SL.No": 3712231352,
  "IoT \nNumber": "AA 0098",
  "Delivery Date": "7-Feb-24",
  "lat": 15.6776236,
  "lng": 78.4227090999999
 },
 {
  "S.No.": 127,
  "District": "Nandyal",
  "Location Name \n(Name of the VD)": "VD DUDYALA",
  "Mandal": "Kothapalle",
  "Village": "DUDYALA",
  "VAS Name": "Dr.G.S.Amar",
  "VAS contact number": 8179235364,
  "Inv No": "FE\/ILR\/NDL\/108",
  "Invoice Date": "6-Feb-24",
  "ILR .SL.No": 3712231359,
  "IoT \nNumber": "AA 0154",
  "Delivery Date": "7-Feb-24",
  "lat": 15.8812008731856,
  "lng": 78.5431271255676
 },
 {
  "S.No.": 128,
  "District": "Nandyal",
  "Location Name \n(Name of the VD)": "VD VEPENTA",
  "Mandal": "Pamulapadu",
  "Village": "VEMPENTA",
  "VAS Name": "Dr.G.S.Amar",
  "VAS contact number": 9599745058,
  "Inv No": "FE\/ILR\/NDL\/109",
  "Invoice Date": "6-Feb-24",
  "ILR .SL.No": 3712231353,
  "IoT \nNumber": "AA 0987",
  "Delivery Date": "7-Feb-24",
  "lat": 15.8818703369326,
  "lng": 78.5445071410212
 },
 {
  "S.No.": 129,
  "District": "Nandyal",
  "Location Name \n(Name of the VD)": "VD KOTCHERUVU",
  "Mandal": "Dhone",
  "Village": "KOTCHERUVU",
  "VAS Name": "Dr.G.S.Amar",
  "VAS contact number": 9642855759,
  "Inv No": "FE\/ILR\/NDL\/110",
  "Invoice Date": "6-Feb-24",
  "ILR .SL.No": 3712231346,
  "IoT \nNumber": "AA 1788",
  "Delivery Date": "7-Feb-24",
  "lat": 15.324485,
  "lng": 77.876244
 },
 {
  "S.No.": 130,
  "District": "Nandyal",
  "Location Name \n(Name of the VD)": "VD N RACHERLA",
  "Mandal": "Peapully",
  "Village": "N RACHERLA",
  "VAS Name": "Dr.G.S.Amar",
  "VAS contact number": 9703733442,
  "Inv No": "FE\/ILR\/NDL\/111",
  "Invoice Date": "6-Feb-24",
  "ILR .SL.No": 3712231347,
  "IoT \nNumber": "AA 1845",
  "Delivery Date": "7-Feb-24",
  "lat": 15.2382762015732,
  "lng": 77.944923871456
 },
 {
  "S.No.": 131,
  "District": "Nandyal",
  "Location Name \n(Name of the VD)": "VD HUSSAINAPURAM",
  "Mandal": "Peapully",
  "Village": "HUSSAINAPURAM",
  "VAS Name": "Dr.G.S.Amar",
  "VAS contact number": 9642855759,
  "Inv No": "FE\/ILR\/NDL\/112",
  "Invoice Date": "6-Feb-24",
  "ILR .SL.No": 3712231333,
  "IoT \nNumber": "AA 1802",
  "Delivery Date": "7-Feb-24",
  "lat": 15.234715,
  "lng": 77.827906
 },
 {
  "S.No.": 132,
  "District": "Nandyal",
  "Location Name \n(Name of the VD)": "AVH  PANYAM",
  "Mandal": "Panyam",
  "Village": "Panyam",
  "VAS Name": "Dr.G.S.Amar",
  "VAS contact number": 8332837458,
  "Inv No": "FE\/ILR\/NDL\/113",
  "Invoice Date": "6-Feb-24",
  "ILR .SL.No": 3712231365,
  "IoT \nNumber": "AA 2124",
  "Delivery Date": "7-Feb-24",
  "lat": 15.5181643,
  "lng": 78.3498378
 },
 {
  "S.No.": 133,
  "District": "Nandyal",
  "Location Name \n(Name of the VD)": "AVH VELUGODU",
  "Mandal": "Velgode",
  "Village": "Velgode",
  "VAS Name": "Dr.G.S.Amar",
  "VAS contact number": 8332837458,
  "Inv No": "FE\/ILR\/NDL\/114",
  "Invoice Date": "6-Feb-24",
  "ILR .SL.No": 3712231340,
  "IoT \nNumber": "AA 1564",
  "Delivery Date": "7-Feb-24",
  "lat": 15.7183119,
  "lng": 78.574602
 },
 {
  "S.No.": 134,
  "District": "Nandyal",
  "Location Name \n(Name of the VD)": "AVH JUPADU BANGLOW",
  "Mandal": "Jupadu Bunglow",
  "Village": "Jupadu Bunglow",
  "VAS Name": "Dr.G.S.Amar",
  "VAS contact number": 9182676847,
  "Inv No": "FE\/ILR\/NDL\/115",
  "Invoice Date": "8-Feb-24",
  "ILR .SL.No": 3712231411,
  "IoT \nNumber": "AA 1488",
  "Delivery Date": "9-Feb-24",
  "lat": 15.8656956,
  "lng": 78.3856447
 },
 {
  "S.No.": 135,
  "District": "Nandyal",
  "Location Name \n(Name of the VD)": "O\/o DAHO Nandyal",
  "Mandal": "NANDYAL",
  "Village": "NANDYAL",
  "VAS Name": "Dr.G.S.Amar",
  "VAS contact number": 9866646417,
  "Inv No": "FE\/ILR\/NDL\/116",
  "Invoice Date": "6-Feb-24",
  "ILR .SL.No": 3712231338,
  "IoT \nNumber": "AA 1776",
  "Delivery Date": "7-Feb-24",
  "lat": 15.4776876,
  "lng": 78.487285
 },
 {
  "S.No.": 136,
  "District": "Sri Satya Sai",
  "Location Name \n(Name of the VD)": "VD Nasanakota",
  "Mandal": "Ramagiri",
  "Village": " Nasanakota",
  "VAS Name": "Dr.G.S.Amar",
  "VAS contact number": 9440852966,
  "Inv No": "FE\/ILR\/SSS\/048",
  "Invoice Date": "13-Feb-24",
  "ILR .SL.No": 3712231275,
  "IoT \nNumber": "AA  1167",
  "Delivery Date": "14-Feb-24",
  "lat": 14.334994,
  "lng": 77.4587239
 },
 {
  "S.No.": 137,
  "District": "Sri Satya Sai",
  "Location Name \n(Name of the VD)": "VD Thagarakunta",
  "Mandal": "Kanaganapalli",
  "Village": " Thagarakunta",
  "VAS Name": "Dr.G.S.Amar",
  "VAS contact number": 8522912531,
  "Inv No": "FE\/ILR\/SSS\/049",
  "Invoice Date": "13-Feb-24",
  "ILR .SL.No": 3712231293,
  "IoT \nNumber": "AA  0457",
  "Delivery Date": "14-Feb-24",
  "lat": 14.4878638,
  "lng": 77.4601581
 },
 {
  "S.No.": 138,
  "District": "Sri Satya Sai",
  "Location Name \n(Name of the VD)": "VD Pamudurthi",
  "Mandal": "Bukkapatnam",
  "Village": " Pamudurthi",
  "VAS Name": "Dr. Hemalaltha",
  "VAS contact number": 9346855865,
  "Inv No": "FE\/ILR\/SSS\/050",
  "Invoice Date": "13-Feb-24",
  "ILR .SL.No": 3712231300,
  "IoT \nNumber": "AA  1893",
  "Delivery Date": "14-Feb-24",
  "lat": 14.2718115,
  "lng": 77.9724373999999
 },
 {
  "S.No.": 139,
  "District": "Sri Satya Sai",
  "Location Name \n(Name of the VD)": "RLU Gunipalli",
  "Mandal": "Bukkapatnam",
  "Village": " Gunipalli",
  "VAS Name": "Dr. Jayakumar Reddy",
  "VAS contact number": 9346855865,
  "Inv No": "FE\/ILR\/SSS\/051",
  "Invoice Date": "13-Feb-24",
  "ILR .SL.No": 3712231296,
  "IoT \nNumber": "AA  1465",
  "Delivery Date": "14-Feb-24",
  "lat": 14.2729633,
  "lng": 77.9110321
 },
 {
  "S.No.": 140,
  "District": "Sri Satya Sai",
  "Location Name \n(Name of the VD)": "VD Kadiribramanapalli",
  "Mandal": "KADIRI",
  "Village": " Kadiribramanapalli",
  "VAS Name": "Dr. Purusotham Reddy",
  "VAS contact number": 9182029464,
  "Inv No": "FE\/ILR\/SSS\/052",
  "Invoice Date": "11-Feb-24",
  "ILR .SL.No": 3712231274,
  "IoT \nNumber": "AA  1935",
  "Delivery Date": "12-Feb-24",
  "lat": 14.065405,
  "lng": 78.132696
 },
 {
  "S.No.": 141,
  "District": "Sri Satya Sai",
  "Location Name \n(Name of the VD)": "RLU Gowni Palli",
  "Mandal": "Obuladeva Cheruvu",
  "Village": " Gowni Palli",
  "VAS Name": "Dr C.Praveen Kumar",
  "VAS contact number": 9963656882,
  "Inv No": "FE\/ILR\/SSS\/053",
  "Invoice Date": "11-Feb-24",
  "ILR .SL.No": 3712231276,
  "IoT \nNumber": "AA  1890",
  "Delivery Date": "12-Feb-24",
  "lat": 13.970853,
  "lng": 77.873985
 },
 {
  "S.No.": 142,
  "District": "Sri Satya Sai",
  "Location Name \n(Name of the VD)": "RLU Kotapalli",
  "Mandal": "Tanakal",
  "Village": "Kotapalli",
  "VAS Name": "Dr P. Harinath Reddy",
  "VAS contact number": 8309588246,
  "Inv No": "FE\/ILR\/SSS\/054",
  "Invoice Date": "14-Feb-24",
  "ILR .SL.No": 3712231279,
  "IoT \nNumber": "AA  1838",
  "Delivery Date": "15-Feb-24",
  "lat": 13.858645,
  "lng": 78.144897
 },
 {
  "S.No.": 143,
  "District": "Sri Satya Sai",
  "Location Name \n(Name of the VD)": "RLU Nidimamidi",
  "Mandal": "Puttparthy",
  "Village": " Nidimamidi",
  "VAS Name": "Dr GangaBhavani",
  "VAS contact number": 9866811836,
  "Inv No": "FE\/ILR\/SSS\/055",
  "Invoice Date": "13-Feb-24",
  "ILR .SL.No": 3712231303,
  "IoT \nNumber": "AA 1798",
  "Delivery Date": "14-Feb-24",
  "lat": 14.041308,
  "lng": 77.713318
 },
 {
  "S.No.": 144,
  "District": "Sri Satya Sai",
  "Location Name \n(Name of the VD)": "VD Neelakantapuram",
  "Mandal": "Madakasira",
  "Village": "Neelakantapuram",
  "VAS Name": "Dr.A.T.Priyadarshini",
  "VAS contact number": 9700574400,
  "Inv No": "FE\/ILR\/SSS\/056",
  "Invoice Date": "13-Feb-24",
  "ILR .SL.No": 3712231280,
  "IoT \nNumber": "AA  1528",
  "Delivery Date": "14-Feb-24",
  "lat": 13.9400109,
  "lng": 77.2706836
 },
 {
  "S.No.": 145,
  "District": "Sri Satya Sai",
  "Location Name \n(Name of the VD)": "VD Kallumarri",
  "Mandal": "Madakasira",
  "Village": " Kallumarri",
  "VAS Name": "Dr.B.Sunil Kumar",
  "VAS contact number": 9700574400,
  "Inv No": "FE\/ILR\/SSS\/057",
  "Invoice Date": "13-Feb-24",
  "ILR .SL.No": 3712231316,
  "IoT \nNumber": "AA 1847",
  "Delivery Date": "14-Feb-24",
  "lat": 13.8742687,
  "lng": 77.3668965
 },
 {
  "S.No.": 146,
  "District": "Sri Satya Sai",
  "Location Name \n(Name of the VD)": "VD Rathnagiri",
  "Mandal": "Rolla",
  "Village": "Rathnagiri",
  "VAS Name": "Sri. M. Gangulaiah(LSA)",
  "VAS contact number": 9700574400,
  "Inv No": "FE\/ILR\/SSS\/058",
  "Invoice Date": "14-Feb-24",
  "ILR .SL.No": 3712231281,
  "IoT \nNumber": "AA  1782",
  "Delivery Date": "15-Feb-24",
  "lat": 13.8092028,
  "lng": 77.1296622
 },
 {
  "S.No.": 147,
  "District": "Sri Satya Sai",
  "Location Name \n(Name of the VD)": "RLU Yerrabommanahalli",
  "Mandal": "Madakasira",
  "Village": "Yerrabommanahalli",
  "VAS Name": "Sri Vidya Sagar",
  "VAS contact number": 9700574400,
  "Inv No": "FE\/ILR\/SSS\/059",
  "Invoice Date": "13-Feb-24",
  "ILR .SL.No": 3712231277,
  "IoT \nNumber": "AA  1073",
  "Delivery Date": "14-Feb-24",
  "lat": 13.8739408,
  "lng": 77.2656588
 },
 {
  "S.No.": 148,
  "District": "Sri Satya Sai",
  "Location Name \n(Name of the VD)": "RLU Chandakacherla",
  "Mandal": "Madakasira",
  "Village": " Chandakacherla",
  "VAS Name": "Sri Raja Gopal Reddy",
  "VAS contact number": 9700574400,
  "Inv No": "FE\/ILR\/SSS\/060",
  "Invoice Date": "13-Feb-24",
  "ILR .SL.No": 3712231297,
  "IoT \nNumber": "AA  1787",
  "Delivery Date": "14-Feb-24",
  "lat": 13.9904396,
  "lng": 77.3037229999999
 },
 {
  "S.No.": 149,
  "District": "Sri Satya Sai",
  "Location Name \n(Name of the VD)": "RLU Guddigurki",
  "Mandal": "Rolla",
  "Village": " Guddigurki",
  "VAS Name": "Sri. C. Mani(JVO)",
  "VAS contact number": 9700574400,
  "Inv No": "FE\/ILR\/SSS\/061",
  "Invoice Date": "14-Feb-24",
  "ILR .SL.No": 3712231282,
  "IoT \nNumber": "AA  2284",
  "Delivery Date": "15-Feb-24",
  "lat": 13.8429979,
  "lng": 77.1010416
 },
 {
  "S.No.": 150,
  "District": "Sri Satya Sai",
  "Location Name \n(Name of the VD)": "RLU Muthepalli",
  "Mandal": "Agali",
  "Village": " Muthepalli",
  "VAS Name": "Sri. G. MALLAIAH(LSA)",
  "VAS contact number": 9700574400,
  "Inv No": "FE\/ILR\/SSS\/062",
  "Invoice Date": "14-Feb-24",
  "ILR .SL.No": 3712231299,
  "IoT \nNumber": "AA  1394",
  "Delivery Date": "15-Feb-24",
  "lat": 13.785155,
  "lng": 77.0541463
 },
 {
  "S.No.": 151,
  "District": "Sri Satya Sai",
  "Location Name \n(Name of the VD)": "RLU P.Byadigera",
  "Mandal": "Agali",
  "Village": "P.Byadigera",
  "VAS Name": "Smt A Rukshana (LSA)",
  "VAS contact number": 9700574400,
  "Inv No": "FE\/ILR\/SSS\/063",
  "Invoice Date": "14-Feb-24",
  "ILR .SL.No": 3712231298,
  "IoT \nNumber": "AA  1784",
  "Delivery Date": "15-Feb-24",
  "lat": 13.79531,
  "lng": 77.0017465
 },
 {
  "S.No.": 152,
  "District": "Sri Satya Sai",
  "Location Name \n(Name of the VD)": "VH Amarapuram",
  "Mandal": "Amarapuram",
  "Village": " Amarapuram",
  "VAS Name": "Dr Maheswar reddy",
  "VAS contact number": 9700574400,
  "Inv No": "FE\/ILR\/SSS\/064",
  "Invoice Date": "13-Feb-24",
  "ILR .SL.No": 3712231302,
  "IoT \nNumber": "AA 1596",
  "Delivery Date": "14-Feb-24",
  "lat": 14.1239335,
  "lng": 76.9807302
 },
 {
  "S.No.": 153,
  "District": "Sri Satya Sai",
  "Location Name \n(Name of the VD)": "VD Hemavathi",
  "Mandal": "Amarapuram",
  "Village": "Hemavathi",
  "VAS Name": "Dr Maheswar reddy",
  "VAS contact number": 9700574400,
  "Inv No": "FE\/ILR\/SSS\/065",
  "Invoice Date": "13-Feb-24",
  "ILR .SL.No": 3712231278,
  "IoT \nNumber": "AA  0157",
  "Delivery Date": "14-Feb-24",
  "lat": 14.0258011,
  "lng": 76.9930177
 },
 {
  "S.No.": 154,
  "District": "Sri Satya Sai",
  "Location Name \n(Name of the VD)": "RLU Valasa",
  "Mandal": "Amarapuram",
  "Village": " Valasa",
  "VAS Name": "Dr Maheswar reddy",
  "VAS contact number": 9700574400,
  "Inv No": "FE\/ILR\/SSS\/066",
  "Invoice Date": "13-Feb-24",
  "ILR .SL.No": 3712231301,
  "IoT \nNumber": "AA 1686",
  "Delivery Date": "14-Feb-24",
  "lat": 14.1631295,
  "lng": 76.9472574999999
 },
 {
  "S.No.": 155,
  "District": "Sri Satya Sai",
  "Location Name \n(Name of the VD)": "RLU Veerapuram ",
  "Mandal": "Chilamathur",
  "Village": "Veerapuram ",
  "VAS Name": "Dr Maheswar reddy",
  "VAS contact number": 7337430323,
  "Inv No": "FE\/ILR\/SSS\/067",
  "Invoice Date": "11-Feb-24",
  "ILR .SL.No": 3712231294,
  "IoT \nNumber": "AA  1653",
  "Delivery Date": "12-Feb-24",
  "lat": 13.7592649,
  "lng": 77.7166707
 },
 {
  "S.No.": 156,
  "District": "Sri Satya Sai",
  "Location Name \n(Name of the VD)": "RLU Kanchisamudram",
  "Mandal": "Lepakashi",
  "Village": " Kanchisamudram",
  "VAS Name": "Dr Maheswar reddy",
  "VAS contact number": 8790710892,
  "Inv No": "FE\/ILR\/SSS\/068",
  "Invoice Date": "14-Feb-24",
  "ILR .SL.No": 3712231285,
  "IoT \nNumber": "AA  1848",
  "Delivery Date": "15-Feb-24",
  "lat": 13.7794751,
  "lng": 77.6249734
 },
 {
  "S.No.": 157,
  "District": "Sri Satya Sai",
  "Location Name \n(Name of the VD)": "VPC Hindupur",
  "Mandal": "Hindupur",
  "Village": " Hindupur",
  "VAS Name": "Dr.R.Sridhar Reddy",
  "VAS contact number": 8886688836,
  "Inv No": "FE\/ILR\/SSS\/069",
  "Invoice Date": "11-Feb-24",
  "ILR .SL.No": 3712231291,
  "IoT \nNumber": "AA  0753",
  "Delivery Date": "12-Feb-24",
  "lat": 13.8222599,
  "lng": 77.5009298
 },
 {
  "S.No.": 158,
  "District": "Sri Satya Sai",
  "Location Name \n(Name of the VD)": "VH Parigi",
  "Mandal": "Hindupur",
  "Village": " Parigi",
  "VAS Name": "Dr.R.Sridhar Reddy",
  "VAS contact number": 9949707699,
  "Inv No": "FE\/ILR\/SSS\/070",
  "Invoice Date": "11-Feb-24",
  "ILR .SL.No": 3712231289,
  "IoT \nNumber": "AA  1786",
  "Delivery Date": "12-Feb-24",
  "lat": 13.8922114,
  "lng": 77.4609304
 },
 {
  "S.No.": 159,
  "District": "Sri Satya Sai",
  "Location Name \n(Name of the VD)": "VD kodikonda",
  "Mandal": "Chilamathur",
  "Village": "Kodikonda",
  "VAS Name": "Dr.R.Sridhar Reddy",
  "VAS contact number": 9100563354,
  "Inv No": "FE\/ILR\/SSS\/071",
  "Invoice Date": "11-Feb-24",
  "ILR .SL.No": 3712231295,
  "IoT \nNumber": "AA  1684",
  "Delivery Date": "12-Feb-24",
  "lat": 13.8378366,
  "lng": 77.7380549
 },
 {
  "S.No.": 160,
  "District": "Sri Satya Sai",
  "Location Name \n(Name of the VD)": "VD K Basavanapalli",
  "Mandal": "Hindupur",
  "Village": "K Basavanapalli",
  "VAS Name": "Dr.V.Siva Prasad",
  "VAS contact number": 7259409245,
  "Inv No": "FE\/ILR\/SSS\/072",
  "Invoice Date": "11-Feb-24",
  "ILR .SL.No": 3712231272,
  "IoT \nNumber": "AA  0685",
  "Delivery Date": "12-Feb-24",
  "lat": 13.7874906,
  "lng": 77.4895557
 }
]
}