{
"entries":[
 {
  "State": "Andhra Pradesh",
  "District": "ASR",
  "Address": "Ananthagiri.-ArakuValley Mandal",
  "Logger Id": "PD0010",
  "Type of Facility": "ILR",
  "Lattiude": 18.3273486,
  "Longitude": 82.8775218,
  "LatLng": "18.3273486, 82.8775218"
 },
 {
  "State": "Andhra Pradesh",
  "District": "ASR",
  "Address": "Devarapalli-Maredumilli Mandal",
  "Logger Id": "PD1966",
  "Type of Facility": "ILR",
  "Lattiude": 17.5983355,
  "Longitude": 81.7135475,
  "LatLng": "17.5983355, 81.7135475"
 },
 {
  "State": "Andhra Pradesh",
  "District": "ASR",
  "Address": "G.D.Peta-Yatapaka Mandal",
  "Logger Id": "PD0614",
  "Type of Facility": "ILR",
  "Lattiude": 17.6934752,
  "Longitude": 80.90833,
  "LatLng": "17.6934752, 80.90833"
 },
 {
  "State": "Andhra Pradesh",
  "District": "ASR",
  "Address": "G.Madugula.-G.Madugula Mandal",
  "Logger Id": "PD1345",
  "Type of Facility": "ILR",
  "Lattiude": 18.0127822,
  "Longitude": 82.5326911,
  "LatLng": "18.0127822, 82.5326911"
 },
 {
  "State": "Andhra Pradesh",
  "District": "ASR",
  "Address": "Indukurupeta-Devipatnam Mandal",
  "Logger Id": "PD1440",
  "Type of Facility": "ILR",
  "Lattiude": 17.2617421,
  "Longitude": 81.7834868,
  "LatLng": "17.2617421, 81.7834868"
 },
 {
  "State": "Andhra Pradesh",
  "District": "ASR",
  "Address": "Kasipatnam-Ananthagiri Mandal",
  "Logger Id": "PD0765",
  "Type of Facility": "ILR",
  "Lattiude": 18.1968728,
  "Longitude": 82.9978626,
  "LatLng": "18.1968728, 82.9978626"
 },
 {
  "State": "Andhra Pradesh",
  "District": "ASR",
  "Address": "Koyyuru.-Koyyuru Mandal",
  "Logger Id": "PD0801",
  "Type of Facility": "ILR",
  "Lattiude": 17.6550069,
  "Longitude": 82.2182569,
  "LatLng": "17.6550069, 82.2182569"
 },
 {
  "State": "Andhra Pradesh",
  "District": "ASR",
  "Address": "Kunavaram-Kunavaram Mandal",
  "Logger Id": "PD0031",
  "Type of Facility": "ILR",
  "Lattiude": 16.440428,
  "Longitude": 81.8702405,
  "LatLng": "16.440428, 81.8702405"
 },
 {
  "State": "Andhra Pradesh",
  "District": "ASR",
  "Address": "Kuturu-Kunavaram Mandal",
  "Logger Id": "PD1702",
  "Type of Facility": "ILR",
  "Lattiude": 17.6867189,
  "Longitude": 81.3096828,
  "LatLng": "17.6867189, 81.3096828"
 },
 {
  "State": "Andhra Pradesh",
  "District": "ASR",
  "Address": "Mothugudem-Chinturu Mandal",
  "Logger Id": "PD1495",
  "Type of Facility": "ILR",
  "Lattiude": 17.747799,
  "Longitude": 81.4006199,
  "LatLng": "17.747799, 81.4006199"
 },
 {
  "State": "Andhra Pradesh",
  "District": "ASR",
  "Address": "Munchangiput.-Munchingputttu Mandal",
  "Logger Id": "PD1641",
  "Type of Facility": "ILR",
  "Lattiude": 15.9128998,
  "Longitude": 79.7399875,
  "LatLng": "15.9128998, 79.7399875"
 },
 {
  "State": "Andhra Pradesh",
  "District": "ASR",
  "Address": "Rajavommangi-Rajavommangi Mandal",
  "Logger Id": "PD0064",
  "Type of Facility": "ILR",
  "Lattiude": 17.546866,
  "Longitude": 82.233202,
  "LatLng": "17.546866, 82.233202"
 },
 {
  "State": "Andhra Pradesh",
  "District": "ASR",
  "Address": "Seethapalli -Rampachodavaram Mandal",
  "Logger Id": "PD0112",
  "Type of Facility": "ILR",
  "Lattiude": 17.3772838,
  "Longitude": 81.7937386,
  "LatLng": "17.3772838, 81.7937386"
 },
 {
  "State": "Andhra Pradesh",
  "District": "ASR",
  "Address": "Y.Ramavaram-Y.Ramavaram Mandal",
  "Logger Id": "PD0928",
  "Type of Facility": "ILR",
  "Lattiude": 17.6797658,
  "Longitude": 81.956891,
  "LatLng": "17.6797658, 81.956891"
 },
 {
  "State": "Andhra Pradesh",
  "District": "Anakapalli",
  "Address": "Adduru-Chodavaram Mandal",
  "Logger Id": "PD0625",
  "Type of Facility": "ILR",
  "Lattiude": 17.7869686,
  "Longitude": 83.0092803,
  "LatLng": "17.7869686, 83.0092803"
 },
 {
  "State": "Andhra Pradesh",
  "District": "Anakapalli",
  "Address": "Anthakapalli-Sabbavaram Mandal",
  "Logger Id": "PD0254",
  "Type of Facility": "ILR",
  "Lattiude": 17.8148518,
  "Longitude": 83.1210018,
  "LatLng": "17.8148518, 83.1210018"
 },
 {
  "State": "Andhra Pradesh",
  "District": "Anakapalli",
  "Address": "Butchempeta-Rolugunta Mandal",
  "Logger Id": "PD1503",
  "Type of Facility": "ILR",
  "Lattiude": 17.7295263,
  "Longitude": 82.6064693,
  "LatLng": "17.7295263, 82.6064693"
 },
 {
  "State": "Andhra Pradesh",
  "District": "Anakapalli",
  "Address": "Chettupalli-Narsipatnam Mandal",
  "Logger Id": "PD0932",
  "Type of Facility": "ILR",
  "Lattiude": 17.6811354,
  "Longitude": 82.6496946,
  "LatLng": "17.6811354, 82.6496946"
 },
 {
  "State": "Andhra Pradesh",
  "District": "Anakapalli",
  "Address": "Chinadoddigallu-Nakkapalli Mandal",
  "Logger Id": "PD0940",
  "Type of Facility": "ILR",
  "Lattiude": 17.4072904,
  "Longitude": 82.7154634,
  "LatLng": "17.4072904, 82.7154634"
 },
 {
  "State": "Andhra Pradesh",
  "District": "Anakapalli",
  "Address": "Chinnagummuluru-S. Rayavaram Mandal",
  "Logger Id": "PD1248",
  "Type of Facility": "ILR",
  "Lattiude": 17.454556,
  "Longitude": 82.8061559,
  "LatLng": "17.454556, 82.8061559"
 },
 {
  "State": "Andhra Pradesh",
  "District": "Anakapalli",
  "Address": "Chowduwada-K.Kotapadu Mandal",
  "Logger Id": "PD1188",
  "Type of Facility": "ILR",
  "Lattiude": 17.8925554,
  "Longitude": 83.1330611,
  "LatLng": "17.8925554, 83.1330611"
 },
 {
  "State": "Andhra Pradesh",
  "District": "Anakapalli",
  "Address": "DAHO Anakapalli - Anakapalli Mandal",
  "Logger Id": "AA1924",
  "Type of Facility": "ILR",
  "Lattiude": 17.69619,
  "Longitude": 83.0027498,
  "LatLng": "17.69619, 83.0027498"
 },
 {
  "State": "Andhra Pradesh",
  "District": "Anakapalli",
  "Address": "Dimili-Rambilli Mandal",
  "Logger Id": "PD0565",
  "Type of Facility": "ILR",
  "Lattiude": 17.5109201,
  "Longitude": 82.8719356,
  "LatLng": "17.5109201, 82.8719356"
 },
 {
  "State": "Andhra Pradesh",
  "District": "Anakapalli",
  "Address": "Dosuru-Atchuthapuram Mandal",
  "Logger Id": "PD1381",
  "Type of Facility": "ILR",
  "Lattiude": 17.5472775,
  "Longitude": 83.0354663,
  "LatLng": "17.5472775, 83.0354663"
 },
 {
  "State": "Andhra Pradesh",
  "District": "Anakapalli",
  "Address": "Etikoppaka-Yelamanchili Mandal",
  "Logger Id": "PD0140",
  "Type of Facility": "ILR",
  "Lattiude": 17.4876831,
  "Longitude": 82.7468511,
  "LatLng": "17.4876831, 82.7468511"
 },
 {
  "State": "Andhra Pradesh",
  "District": "Anakapalli",
  "Address": "Ganaparthi - Munagapaka mandal",
  "Logger Id": "AA2479",
  "Type of Facility": "ILR",
  "Lattiude": 17.690292,
  "Longitude": 83.186402,
  "LatLng": "17.690292, 83.186402"
 },
 {
  "State": "Andhra Pradesh",
  "District": "Anakapalli",
  "Address": "Gavarapalem-Anakapalli Mandal",
  "Logger Id": "PD0479",
  "Type of Facility": "ILR",
  "Lattiude": 17.6894901,
  "Longitude": 83.0129986,
  "LatLng": "17.6894901, 83.0129986"
 },
 {
  "State": "Andhra Pradesh",
  "District": "Anakapalli",
  "Address": "Godicherla-Nakkapalli Mandal",
  "Logger Id": "PD0598",
  "Type of Facility": "ILR",
  "Lattiude": 17.3919115,
  "Longitude": 82.6199801,
  "LatLng": "17.3919115, 82.6199801"
 },
 {
  "State": "Andhra Pradesh",
  "District": "Anakapalli",
  "Address": "Golugonda-Golugonda Mandal",
  "Logger Id": "PD0152",
  "Type of Facility": "ILR",
  "Lattiude": 17.6794093,
  "Longitude": 82.4678294,
  "LatLng": "17.6794093, 82.4678294"
 },
 {
  "State": "Andhra Pradesh",
  "District": "Anakapalli",
  "Address": "Gullepalli-Sabbavaram Mandal",
  "Logger Id": "PD0528",
  "Type of Facility": "ILR",
  "Lattiude": 17.832138,
  "Longitude": 83.1414466,
  "LatLng": "17.832138, 83.1414466"
 },
 {
  "State": "Andhra Pradesh",
  "District": "Anakapalli",
  "Address": "Gunupudi - Nathavaram Mandal",
  "Logger Id": "AA1546",
  "Type of Facility": "ILR",
  "Lattiude": 17.6901283,
  "Longitude": 83.18633,
  "LatLng": "17.6901283, 83.18633"
 },
 {
  "State": "Andhra Pradesh",
  "District": "Anakapalli",
  "Address": "K.D.Peta-Golugonda Mandal",
  "Logger Id": "PD1942",
  "Type of Facility": "ILR",
  "Lattiude": 17.6719514,
  "Longitude": 82.3695988,
  "LatLng": "17.6719514, 82.3695988"
 },
 {
  "State": "Andhra Pradesh",
  "District": "Anakapalli",
  "Address": "Kannurupalem-Kasimkota Mandal",
  "Logger Id": "PD0092",
  "Type of Facility": "ILR",
  "Lattiude": 17.634444,
  "Longitude": 82.819627,
  "LatLng": "17.634444, 82.819627"
 },
 {
  "State": "Andhra Pradesh",
  "District": "Anakapalli",
  "Address": "Kasimkota-Kasimkota Mandal",
  "Logger Id": "PD0298",
  "Type of Facility": "ILR",
  "Lattiude": 17.668636,
  "Longitude": 82.9641299,
  "LatLng": "17.668636, 82.9641299"
 },
 {
  "State": "Andhra Pradesh",
  "District": "Anakapalli",
  "Address": "Kinthalivallapuram - V Madugula Mandal",
  "Logger Id": "AA2050",
  "Type of Facility": "ILR",
  "Lattiude": 17.6901236,
  "Longitude": 83.186335,
  "LatLng": "17.6901236, 83.186335"
 },
 {
  "State": "Andhra Pradesh",
  "District": "Anakapalli",
  "Address": "Koruvada - k kothapadu mandal",
  "Logger Id": "AA1096",
  "Type of Facility": "ILR",
  "Lattiude": 17.828005,
  "Longitude": 82.9335483,
  "LatLng": "17.828005, 82.9335483"
 },
 {
  "State": "Andhra Pradesh",
  "District": "Anakapalli",
  "Address": "Kothakota-Ravikamatham Mandal",
  "Logger Id": "PD1746",
  "Type of Facility": "ILR",
  "Lattiude": 17.7511437,
  "Longitude": 82.6983535,
  "LatLng": "17.7511437, 82.6983535"
 },
 {
  "State": "Andhra Pradesh",
  "District": "Anakapalli",
  "Address": "Lankelapalem-Parawada Mandal",
  "Logger Id": "PD0946",
  "Type of Facility": "ILR",
  "Lattiude": 17.6209276,
  "Longitude": 83.0810331,
  "LatLng": "17.6209276, 83.0810331"
 },
 {
  "State": "Andhra Pradesh",
  "District": "Anakapalli",
  "Address": "Lingarajupalem-S. Rayavaram Mandal",
  "Logger Id": "PD0485",
  "Type of Facility": "ILR",
  "Lattiude": 17.4429909,
  "Longitude": 82.8115447,
  "LatLng": "17.4429909, 82.8115447"
 },
 {
  "State": "Andhra Pradesh",
  "District": "Anakapalli",
  "Address": "M Alamanda -  Devarapalli Mandal",
  "Logger Id": "AA2138",
  "Type of Facility": "ILR",
  "Lattiude": 16.5107582,
  "Longitude": 80.7086953,
  "LatLng": "16.5107582, 80.7086953"
 },
 {
  "State": "Andhra Pradesh",
  "District": "Anakapalli",
  "Address": "M Jagannadhapuram - Atchuthapuram Mandal",
  "Logger Id": "AA0030",
  "Type of Facility": "ILR",
  "Lattiude": 17.5939752,
  "Longitude": 82.9293053,
  "LatLng": "17.5939752, 82.9293053"
 },
 {
  "State": "Andhra Pradesh",
  "District": "Anakapalli",
  "Address": "M.koduru-V. Madugula Mandal",
  "Logger Id": "PD0864",
  "Type of Facility": "ILR",
  "Lattiude": 17.9098003,
  "Longitude": 82.7888929,
  "LatLng": "17.9098003, 82.7888929"
 },
 {
  "State": "Andhra Pradesh",
  "District": "Anakapalli",
  "Address": "Makavarapalem-Makavarapalem Mandal",
  "Logger Id": "PD1660",
  "Type of Facility": "ILR",
  "Lattiude": 17.6193771,
  "Longitude": 82.7199966,
  "LatLng": "17.6193771, 82.7199966"
 },
 {
  "State": "Andhra Pradesh",
  "District": "Anakapalli",
  "Address": "Mamidipalli - Devarapalli Mandal",
  "Logger Id": "AA0921",
  "Type of Facility": "ILR",
  "Lattiude": 16.5099331,
  "Longitude": 80.7098853,
  "LatLng": "16.5099331, 80.7098853"
 },
 {
  "State": "Andhra Pradesh",
  "District": "Anakapalli",
  "Address": "Munagapaka-Munagapaka Mandal",
  "Logger Id": "PD1623",
  "Type of Facility": "ILR",
  "Lattiude": 17.5996951,
  "Longitude": 82.9165388,
  "LatLng": "17.5996951, 82.9165388"
 },
 {
  "State": "Andhra Pradesh",
  "District": "Anakapalli",
  "Address": "Nagulapalli-Munagapaka Mandal",
  "Logger Id": "PD1913",
  "Type of Facility": "ILR",
  "Lattiude": 17.6651746,
  "Longitude": 82.999206,
  "LatLng": "17.6651746, 82.999206"
 },
 {
  "State": "Andhra Pradesh",
  "District": "Anakapalli",
  "Address": "Nathavaram-Nathavaram Mandal",
  "Logger Id": "PD1329",
  "Type of Facility": "ILR",
  "Lattiude": 17.5690406,
  "Longitude": 82.4923758,
  "LatLng": "17.5690406, 82.4923758"
 },
 {
  "State": "Andhra Pradesh",
  "District": "Anakapalli",
  "Address": "Pamulawaka-Kotauratla Mandal",
  "Logger Id": "PD1766",
  "Type of Facility": "ILR",
  "Lattiude": 17.5662138,
  "Longitude": 82.6834453,
  "LatLng": "17.5662138, 82.6834453"
 },
 {
  "State": "Andhra Pradesh",
  "District": "Anakapalli",
  "Address": "Panchadarla - Rambilli Mandal",
  "Logger Id": "AA0264",
  "Type of Facility": "ILR",
  "Lattiude": 16.510895,
  "Longitude": 80.7086492,
  "LatLng": "16.510895, 80.7086492"
 },
 {
  "State": "Andhra Pradesh",
  "District": "Anakapalli",
  "Address": "RLU Ch N Agraharam - Anakapalli Mandal",
  "Logger Id": "AA0356",
  "Type of Facility": "ILR",
  "Lattiude": 17.737563,
  "Longitude": 83.043089,
  "LatLng": "17.737563, 83.043089"
 },
 {
  "State": "Andhra Pradesh",
  "District": "Anakapalli",
  "Address": "RLU Gullipadu -  Nakkapalli Mandal",
  "Logger Id": "AA2452",
  "Type of Facility": "ILR",
  "Lattiude": 16.51073,
  "Longitude": 80.7086532,
  "LatLng": "16.51073, 80.7086532"
 },
 {
  "State": "Andhra Pradesh",
  "District": "Anakapalli",
  "Address": "RLU Marturu - Anakapalli Mandal",
  "Logger Id": "AA0747",
  "Type of Facility": "ILR",
  "Lattiude": 17.73202,
  "Longitude": 83.015823,
  "LatLng": "17.73202, 83.015823"
 },
 {
  "State": "Andhra Pradesh",
  "District": "Anakapalli",
  "Address": "RLU Thallapalem - Kasimkota Mandal",
  "Logger Id": "AA1947",
  "Type of Facility": "ILR",
  "Lattiude": 16.5093695,
  "Longitude": 80.710348,
  "LatLng": "16.5093695, 80.710348"
 },
 {
  "State": "Andhra Pradesh",
  "District": "Anakapalli",
  "Address": "Rolugunta-Rolugunta Mandal",
  "Logger Id": "PD1699",
  "Type of Facility": "ILR",
  "Lattiude": 17.7185645,
  "Longitude": 82.667247,
  "LatLng": "17.7185645, 82.667247"
 },
 {
  "State": "Andhra Pradesh",
  "District": "Anakapalli",
  "Address": "Satyavaram-Payakaraopeta Mandal",
  "Logger Id": "PD1541",
  "Type of Facility": "ILR",
  "Lattiude": 17.3260806,
  "Longitude": 82.5875496,
  "LatLng": "17.3260806, 82.5875496"
 },
 {
  "State": "Andhra Pradesh",
  "District": "Anakapalli",
  "Address": "Seethanagaram-Anakapalli Mandal",
  "Logger Id": "PD1943",
  "Type of Facility": "ILR",
  "Lattiude": 17.7366123,
  "Longitude": 82.9595655,
  "LatLng": "17.7366123, 82.9595655"
 },
 {
  "State": "Andhra Pradesh",
  "District": "Anakapalli",
  "Address": "Somalingapalem-Yelamanchili Mandal",
  "Logger Id": "PD1714",
  "Type of Facility": "ILR",
  "Lattiude": 17.5472347,
  "Longitude": 82.857308,
  "LatLng": "17.5472347, 82.857308"
 },
 {
  "State": "Andhra Pradesh",
  "District": "Anakapalli",
  "Address": "Sreerampuram-Payakaraopeta Mandal",
  "Logger Id": "PD0556",
  "Type of Facility": "ILR",
  "Lattiude": 17.362436,
  "Longitude": 82.553086,
  "LatLng": "17.362436, 82.553086"
 },
 {
  "State": "Andhra Pradesh",
  "District": "Anakapalli",
  "Address": "Srungavaram - Nathavaram mandal",
  "Logger Id": "AA0203",
  "Type of Facility": "ILR",
  "Lattiude": 17.6901803,
  "Longitude": 83.1863602,
  "LatLng": "17.6901803, 83.1863602"
 },
 {
  "State": "Andhra Pradesh",
  "District": "Anakapalli",
  "Address": "VH V Madugula - V Madugula",
  "Logger Id": "AA0683",
  "Type of Facility": "ILR",
  "Lattiude": 17.917944,
  "Longitude": 82.812966,
  "LatLng": "17.917944, 82.812966"
 },
 {
  "State": "Andhra Pradesh",
  "District": "Anakapalli",
  "Address": "VH Yelamanchili - Yelamanchili Mandal",
  "Logger Id": "AA1889",
  "Type of Facility": "ILR",
  "Lattiude": 17.5436007,
  "Longitude": 82.8486424,
  "LatLng": "17.5436007, 82.8486424"
 },
 {
  "State": "Andhra Pradesh",
  "District": "Anakapalli",
  "Address": "VH k Kothapadu -  k kothapadu Mandal",
  "Logger Id": "AA0069",
  "Type of Facility": "ILR",
  "Lattiude": 17.8883905,
  "Longitude": 83.0400952,
  "LatLng": "17.8883905, 83.0400952"
 },
 {
  "State": "Andhra Pradesh",
  "District": "Anakapalli",
  "Address": "VHChodavaram - Chodavaram mandal",
  "Logger Id": "AA0846",
  "Type of Facility": "ILR",
  "Lattiude": 17.8280303,
  "Longitude": 82.9335713,
  "LatLng": "17.8280303, 82.9335713"
 },
 {
  "State": "Andhra Pradesh",
  "District": "Anakapalli",
  "Address": "VHRavikamatam - Ravikamatam Mandal",
  "Logger Id": "AA0394",
  "Type of Facility": "ILR",
  "Lattiude": 17.791292,
  "Longitude": 82.798719,
  "LatLng": "17.791292, 82.798719"
 },
 {
  "State": "Andhra Pradesh",
  "District": "Anakapalli",
  "Address": "Vada cheepurupalli-Parawada Mandal",
  "Logger Id": "PD0668",
  "Type of Facility": "ILR",
  "Lattiude": 17.5660678,
  "Longitude": 83.073835,
  "LatLng": "17.5660678, 83.073835"
 },
 {
  "State": "Andhra Pradesh",
  "District": "Anakapalli",
  "Address": "Vaddadi - Butchayyapeta Mandal",
  "Logger Id": "AA0461",
  "Type of Facility": "ILR",
  "Lattiude": 17.690124,
  "Longitude": 83.1863491,
  "LatLng": "17.690124, 83.1863491"
 },
 {
  "State": "Andhra Pradesh",
  "District": "Anakapalli",
  "Address": "k venkatapuram - Kotauratla",
  "Logger Id": "AA0478",
  "Type of Facility": "ILR",
  "Lattiude": 17.6901299,
  "Longitude": 83.1863443,
  "LatLng": "17.6901299, 83.1863443"
 },
 {
  "State": "Andhra Pradesh",
  "District": "Ananthapur",
  "Address": "ADDL Anantapuram",
  "Logger Id": "AA0726",
  "Type of Facility": "ILR",
  "Lattiude": 14.6738517,
  "Longitude": 77.6009158,
  "LatLng": "14.6738517, 77.6009158"
 },
 {
  "State": "Andhra Pradesh",
  "District": "Ananthapur",
  "Address": "AVH Singanamala",
  "Logger Id": "AA0949",
  "Type of Facility": "ILR",
  "Lattiude": 14.90697,
  "Longitude": 78.01628,
  "LatLng": "14.90697, 78.01628"
 },
 {
  "State": "Andhra Pradesh",
  "District": "Ananthapur",
  "Address": "Amidyala-Uravakonda Mandal",
  "Logger Id": "PD1233",
  "Type of Facility": "ILR",
  "Lattiude": 14.8537787,
  "Longitude": 77.2232709,
  "LatLng": "14.8537787, 77.2232709"
 },
 {
  "State": "Andhra Pradesh",
  "District": "Ananthapur",
  "Address": "Avuladatla-Rayadurgam Mandal",
  "Logger Id": "PD1449",
  "Type of Facility": "ILR",
  "Lattiude": 14.6938406,
  "Longitude": 76.9807873,
  "LatLng": "14.6938406, 76.9807873"
 },
 {
  "State": "Andhra Pradesh",
  "District": "Ananthapur",
  "Address": "B.Pappuru-Narpala Mandal",
  "Logger Id": "PD0107",
  "Type of Facility": "ILR",
  "Lattiude": 14.633715,
  "Longitude": 77.8081363,
  "LatLng": "14.633715, 77.8081363"
 },
 {
  "State": "Andhra Pradesh",
  "District": "Ananthapur",
  "Address": "Bommanahal- Bommanahal Mandal",
  "Logger Id": "PD0624",
  "Type of Facility": "ILR",
  "Lattiude": 15.0008268,
  "Longitude": 76.9779875,
  "LatLng": "15.0008268, 76.9779875"
 },
 {
  "State": "Andhra Pradesh",
  "District": "Ananthapur",
  "Address": "Bukkapuram-Yellanuru Mandal",
  "Logger Id": "PD0896",
  "Type of Facility": "ILR",
  "Lattiude": 14.6433008,
  "Longitude": 77.9909949,
  "LatLng": "14.6433008, 77.9909949"
 },
 {
  "State": "Andhra Pradesh",
  "District": "Ananthapur",
  "Address": "Chiyyedu-Anantapuramu Mandal",
  "Logger Id": "PD1607",
  "Type of Facility": "ILR",
  "Lattiude": 14.604274,
  "Longitude": 77.7059301,
  "LatLng": "14.604274, 77.7059301"
 },
 {
  "State": "Andhra Pradesh",
  "District": "Ananthapur",
  "Address": "Chukkaluru-Tadipatri Mandal",
  "Logger Id": "PD0828",
  "Type of Facility": "ILR",
  "Lattiude": 14.9463156,
  "Longitude": 77.985999,
  "LatLng": "14.9463156, 77.985999"
 },
 {
  "State": "Andhra Pradesh",
  "District": "Ananthapur",
  "Address": "Gangavaram-Beluguppa Mandal",
  "Logger Id": "PD1615",
  "Type of Facility": "ILR",
  "Lattiude": 14.6433873,
  "Longitude": 77.1997141,
  "LatLng": "14.6433873, 77.1997141"
 },
 {
  "State": "Andhra Pradesh",
  "District": "Ananthapur",
  "Address": "Garladinne-Garladinne Mandal",
  "Logger Id": "PD0247",
  "Type of Facility": "ILR",
  "Lattiude": 14.819586,
  "Longitude": 77.5954558,
  "LatLng": "14.819586, 77.5954558"
 },
 {
  "State": "Andhra Pradesh",
  "District": "Ananthapur",
  "Address": "Kandukuru",
  "Logger Id": "AA0193",
  "Type of Facility": "ILR",
  "Lattiude": 14.63373,
  "Longitude": 77.62295,
  "LatLng": "14.63373, 77.62295"
 },
 {
  "State": "Andhra Pradesh",
  "District": "Ananthapur",
  "Address": "Katiganikalva-Anantapuramu Mandal",
  "Logger Id": "PD1348",
  "Type of Facility": "ILR",
  "Lattiude": 14.6310664,
  "Longitude": 77.6188826,
  "LatLng": "14.6310664, 77.6188826"
 },
 {
  "State": "Andhra Pradesh",
  "District": "Ananthapur",
  "Address": "Korrpadu-Bukkarayasamudram Mandal",
  "Logger Id": "PD0189",
  "Type of Facility": "ILR",
  "Lattiude": 14.6938794,
  "Longitude": 77.6342819,
  "LatLng": "14.6938794, 77.6342819"
 },
 {
  "State": "Andhra Pradesh",
  "District": "Ananthapur",
  "Address": "Kuderu-kudair Mandal",
  "Logger Id": "PD0951",
  "Type of Facility": "ILR",
  "Lattiude": 14.7306166,
  "Longitude": 77.4292786,
  "LatLng": "14.7306166, 77.4292786"
 },
 {
  "State": "Andhra Pradesh",
  "District": "Ananthapur",
  "Address": "M.B.Palli-Rapthadu Mandal",
  "Logger Id": "PD1340",
  "Type of Facility": "ILR",
  "Lattiude": 14.6158174,
  "Longitude": 77.6063541,
  "LatLng": "14.6158174, 77.6063541"
 },
 {
  "State": "Andhra Pradesh",
  "District": "Ananthapur",
  "Address": "Palavai-Kalyandurgam Mandal",
  "Logger Id": "PD1485",
  "Type of Facility": "ILR",
  "Lattiude": 14.5110355,
  "Longitude": 77.1650527,
  "LatLng": "14.5110355, 77.1650527"
 },
 {
  "State": "Andhra Pradesh",
  "District": "Ananthapur",
  "Address": "Pallepalli-Rayadurgam Mandal",
  "Logger Id": "PD1181",
  "Type of Facility": "ILR",
  "Lattiude": 14.6909442,
  "Longitude": 76.8666453,
  "LatLng": "14.6909442, 76.8666453"
 },
 {
  "State": "Andhra Pradesh",
  "District": "Ananthapur",
  "Address": "Putlur-Putlur Mandal",
  "Logger Id": "PD0666",
  "Type of Facility": "ILR",
  "Lattiude": 14.8125885,
  "Longitude": 77.9667267,
  "LatLng": "14.8125885, 77.9667267"
 },
 {
  "State": "Andhra Pradesh",
  "District": "Ananthapur",
  "Address": "Salakamcheruvu-Singanamala Mandal",
  "Logger Id": "PD0039",
  "Type of Facility": "ILR",
  "Lattiude": 14.8471826,
  "Longitude": 77.7280396,
  "LatLng": "14.8471826, 77.7280396"
 },
 {
  "State": "Andhra Pradesh",
  "District": "Ananthapur",
  "Address": "Tarimela-Singanamala Mandal",
  "Logger Id": "PD0161",
  "Type of Facility": "ILR",
  "Lattiude": 14.924941,
  "Longitude": 77.6550442,
  "LatLng": "14.924941, 77.6550442"
 },
 {
  "State": "Andhra Pradesh",
  "District": "Ananthapur",
  "Address": "Thopudurthy-Atmakur Mandal",
  "Logger Id": "PD0722",
  "Type of Facility": "ILR",
  "Lattiude": 14.5465736,
  "Longitude": 77.4888388,
  "LatLng": "14.5465736, 77.4888388"
 },
 {
  "State": "Andhra Pradesh",
  "District": "Ananthapur",
  "Address": "Vajrakarur- Vajrakarur Mandal",
  "Logger Id": "PD1767",
  "Type of Facility": "ILR",
  "Lattiude": 15.0266142,
  "Longitude": 77.383888,
  "LatLng": "15.0266142, 77.383888"
 },
 {
  "State": "Andhra Pradesh",
  "District": "Ananthapur",
  "Address": "Venkatampalli-Tadipatri Mandal",
  "Logger Id": "PD0567",
  "Type of Facility": "ILR",
  "Lattiude": 14.9091024,
  "Longitude": 78.0092047,
  "LatLng": "14.9091024, 78.0092047"
 },
 {
  "State": "Andhra Pradesh",
  "District": "Ananthapur",
  "Address": "Vidapanakal-Vidapanakal Mandal",
  "Logger Id": "PD0781",
  "Type of Facility": "ILR",
  "Lattiude": 15.0563214,
  "Longitude": 77.183322,
  "LatLng": "15.0563214, 77.183322"
 },
 {
  "State": "Andhra Pradesh",
  "District": "Ananthapur",
  "Address": "Yadiki-Yadiki Mandal",
  "Logger Id": "PD1295",
  "Type of Facility": "ILR",
  "Lattiude": 15.0498011,
  "Longitude": 77.8736084,
  "LatLng": "15.0498011, 77.8736084"
 },
 {
  "State": "Andhra Pradesh",
  "District": "Ananthapur",
  "Address": "Yerraguntla-Garladinne Mandal",
  "Logger Id": "PD0972",
  "Type of Facility": "ILR",
  "Lattiude": 14.844439,
  "Longitude": 77.5308002,
  "LatLng": "14.844439, 77.5308002"
 },
 {
  "State": "Andhra Pradesh",
  "District": "Annamayya",
  "Address": "Ankisettipalle-Madanapalle Mandal",
  "Logger Id": "PD1352",
  "Type of Facility": "ILR",
  "Lattiude": 13.5560496,
  "Longitude": 78.5010007,
  "LatLng": "13.5560496, 78.5010007"
 },
 {
  "State": "Andhra Pradesh",
  "District": "Annamayya",
  "Address": "B.Kothakota-B Kothakota Mandal",
  "Logger Id": "PD0702",
  "Type of Facility": "ILR",
  "Lattiude": 13.6575418,
  "Longitude": 78.2626658,
  "LatLng": "13.6575418, 78.2626658"
 },
 {
  "State": "Andhra Pradesh",
  "District": "Annamayya",
  "Address": "CTM-Madanapalle Mandal",
  "Logger Id": "PD0090",
  "Type of Facility": "ILR",
  "Lattiude": 13.5585829,
  "Longitude": 78.5094248,
  "LatLng": "13.5585829, 78.5094248"
 },
 {
  "State": "Andhra Pradesh",
  "District": "Annamayya",
  "Address": "Chembakuru-Ramasamudram Mandal",
  "Logger Id": "PD0128",
  "Type of Facility": "ILR",
  "Lattiude": 13.3670753,
  "Longitude": 78.423921,
  "LatLng": "13.3670753, 78.423921"
 },
 {
  "State": "Andhra Pradesh",
  "District": "Annamayya",
  "Address": "Chintaparthi-Valmikipuram Mandal",
  "Logger Id": "PD0339",
  "Type of Facility": "ILR",
  "Lattiude": 13.6430087,
  "Longitude": 78.7058118,
  "LatLng": "13.6430087, 78.7058118"
 },
 {
  "State": "Andhra Pradesh",
  "District": "Annamayya",
  "Address": "GYARAMPALLI-KV PALLI Mandal",
  "Logger Id": "PD0836",
  "Type of Facility": "ILR",
  "Lattiude": 13.7241597,
  "Longitude": 78.8439268,
  "LatLng": "13.7241597, 78.8439268"
 },
 {
  "State": "Andhra Pradesh",
  "District": "Annamayya",
  "Address": "Gandaboyanapalle-Valmikipuram Mandal",
  "Logger Id": "PD1190",
  "Type of Facility": "ILR",
  "Lattiude": 13.6374524,
  "Longitude": 78.6313624,
  "LatLng": "13.6374524, 78.6313624"
 },
 {
  "State": "Andhra Pradesh",
  "District": "Annamayya",
  "Address": "Guntimadugu-Rayachoty Mandal",
  "Logger Id": "PD1122",
  "Type of Facility": "ILR",
  "Lattiude": 14.1140167,
  "Longitude": 78.6285252,
  "LatLng": "14.1140167, 78.6285252"
 },
 {
  "State": "Andhra Pradesh",
  "District": "Annamayya",
  "Address": "K.Kandulavaripalli-Chitvel Mandal",
  "Logger Id": "PD0660",
  "Type of Facility": "ILR",
  "Lattiude": 14.1357053,
  "Longitude": 79.3351735,
  "LatLng": "14.1357053, 79.3351735"
 },
 {
  "State": "Andhra Pradesh",
  "District": "Annamayya",
  "Address": "KV PALLI-KV PALLI Mandal",
  "Logger Id": "PD1529",
  "Type of Facility": "ILR",
  "Lattiude": 13.8074554,
  "Longitude": 78.9026554,
  "LatLng": "13.8074554, 78.9026554"
 },
 {
  "State": "Andhra Pradesh",
  "District": "Annamayya",
  "Address": "Kannemadugu-Thamballapalle Mandal",
  "Logger Id": "PD1470",
  "Type of Facility": "ILR",
  "Lattiude": 13.7733529,
  "Longitude": 78.4894015,
  "LatLng": "13.7733529, 78.4894015"
 },
 {
  "State": "Andhra Pradesh",
  "District": "Annamayya",
  "Address": "Kurabalakota-Kurabalakota Mandal",
  "Logger Id": "PD0059",
  "Type of Facility": "ILR",
  "Lattiude": 13.652581,
  "Longitude": 78.4815879,
  "LatLng": "13.652581, 78.4815879"
 },
 {
  "State": "Andhra Pradesh",
  "District": "Annamayya",
  "Address": "Mahal-Kalikiri Mandal",
  "Logger Id": "PD0084",
  "Type of Facility": "ILR",
  "Lattiude": 13.7751696,
  "Longitude": 78.7894122,
  "LatLng": "13.7751696, 78.7894122"
 },
 {
  "State": "Andhra Pradesh",
  "District": "Annamayya",
  "Address": "Mangampeta-Obulavaripalli Mandal",
  "Logger Id": "PD1343",
  "Type of Facility": "ILR",
  "Lattiude": 14.0414759,
  "Longitude": 79.3064152,
  "LatLng": "14.0414759, 79.3064152"
 },
 {
  "State": "Andhra Pradesh",
  "District": "Annamayya",
  "Address": "Medikurthi-Kalikiri Mandal",
  "Logger Id": "PD0237",
  "Type of Facility": "ILR",
  "Lattiude": 13.6982447,
  "Longitude": 78.7759559,
  "LatLng": "13.6982447, 78.7759559"
 },
 {
  "State": "Andhra Pradesh",
  "District": "Annamayya",
  "Address": "Mudivedu-Kurabalakota Mandal",
  "Logger Id": "PD1258",
  "Type of Facility": "ILR",
  "Lattiude": 13.7075719,
  "Longitude": 78.5075126,
  "LatLng": "13.7075719, 78.5075126"
 },
 {
  "State": "Andhra Pradesh",
  "District": "Annamayya",
  "Address": "Mulakalacheruvu-Mulakalacheruvu Mandal",
  "Logger Id": "PD0126",
  "Type of Facility": "ILR",
  "Lattiude": 13.79822,
  "Longitude": 78.2632767,
  "LatLng": "13.79822, 78.2632767"
 },
 {
  "State": "Andhra Pradesh",
  "District": "Annamayya",
  "Address": "NADIMICHERLA-Kalakada Mandal",
  "Logger Id": "PD1287",
  "Type of Facility": "ILR",
  "Lattiude": 13.8320274,
  "Longitude": 78.6841917,
  "LatLng": "13.8320274, 78.6841917"
 },
 {
  "State": "Andhra Pradesh",
  "District": "Annamayya",
  "Address": "NUTHANKALVA-KV PALLI Mandal",
  "Logger Id": "PD1145",
  "Type of Facility": "ILR",
  "Lattiude": 13.8674589,
  "Longitude": 78.9307689,
  "LatLng": "13.8674589, 78.9307689"
 },
 {
  "State": "Andhra Pradesh",
  "District": "Annamayya",
  "Address": "Nagirimadugu-vayalpad Mandal",
  "Logger Id": "PD0634",
  "Type of Facility": "ILR",
  "Lattiude": 13.6972176,
  "Longitude": 78.6990782,
  "LatLng": "13.6972176, 78.6990782"
 },
 {
  "State": "Andhra Pradesh",
  "District": "Annamayya",
  "Address": "Nandaluru-Nandaluru Mandal",
  "Logger Id": "PD0060",
  "Type of Facility": "ILR",
  "Lattiude": 14.2676323,
  "Longitude": 79.1008351,
  "LatLng": "14.2676323, 79.1008351"
 },
 {
  "State": "Andhra Pradesh",
  "District": "Annamayya",
  "Address": "Nimmanapalle-Nimmanapalle Mandal",
  "Logger Id": "PD0169",
  "Type of Facility": "ILR",
  "Lattiude": 13.5714548,
  "Longitude": 78.6675305,
  "LatLng": "13.5714548, 78.6675305"
 },
 {
  "State": "Andhra Pradesh",
  "District": "Annamayya",
  "Address": "Nooliveedu-Galiveedu Mandal",
  "Logger Id": "PD0934",
  "Type of Facility": "ILR",
  "Lattiude": 14.1011705,
  "Longitude": 78.5540184,
  "LatLng": "14.1011705, 78.5540184"
 },
 {
  "State": "Andhra Pradesh",
  "District": "Annamayya",
  "Address": "Obulavaripalli-Obulavaripalli Mandal",
  "Logger Id": "PD1408",
  "Type of Facility": "ILR",
  "Lattiude": 14.0374777,
  "Longitude": 79.2648481,
  "LatLng": "14.0374777, 79.2648481"
 },
 {
  "State": "Andhra Pradesh",
  "District": "Annamayya",
  "Address": "P R PALLE-Kalakada Mandal",
  "Logger Id": "PD0870",
  "Type of Facility": "ILR",
  "Lattiude": 13.7825748,
  "Longitude": 78.7294317,
  "LatLng": "13.7825748, 78.7294317"
 },
 {
  "State": "Andhra Pradesh",
  "District": "Annamayya",
  "Address": "PTM-P.T.M Mandal",
  "Logger Id": "PD1201",
  "Type of Facility": "ILR",
  "Lattiude": 13.7048567,
  "Longitude": 78.21703,
  "LatLng": "13.7048567, 78.21703"
 },
 {
  "State": "Andhra Pradesh",
  "District": "Annamayya",
  "Address": "Pandillapalli-Lakkireddipalli Mandal",
  "Logger Id": "PD1306",
  "Type of Facility": "ILR",
  "Lattiude": 14.1831779,
  "Longitude": 78.6994326,
  "LatLng": "14.1831779, 78.6994326"
 },
 {
  "State": "Andhra Pradesh",
  "District": "Annamayya",
  "Address": "Peddamandyam-Peddamandyam Mandal",
  "Logger Id": "PD1796",
  "Type of Facility": "ILR",
  "Lattiude": 13.9273819,
  "Longitude": 78.5490494,
  "LatLng": "13.9273819, 78.5490494"
 },
 {
  "State": "Andhra Pradesh",
  "District": "Annamayya",
  "Address": "Pullampeta-Pullampeta mandal",
  "Logger Id": "PD1167",
  "Type of Facility": "ILR",
  "Lattiude": 14.1223474,
  "Longitude": 79.2098667,
  "LatLng": "14.1223474, 79.2098667"
 },
 {
  "State": "Andhra Pradesh",
  "District": "Annamayya",
  "Address": "Ramasamudram-Ramasamudram Mandal",
  "Logger Id": "PD0268",
  "Type of Facility": "ILR",
  "Lattiude": 13.3670753,
  "Longitude": 78.4239209,
  "LatLng": "13.3670753, 78.4239209"
 },
 {
  "State": "Andhra Pradesh",
  "District": "Annamayya",
  "Address": "Rayavaram-T Sundupalli Mandal",
  "Logger Id": "PD1240",
  "Type of Facility": "ILR",
  "Lattiude": 13.9909154,
  "Longitude": 78.993862,
  "LatLng": "13.9909154, 78.993862"
 },
 {
  "State": "Andhra Pradesh",
  "District": "Annamayya",
  "Address": "Reddivaripalli-Chitvel Mandal",
  "Logger Id": "PD1204",
  "Type of Facility": "ILR",
  "Lattiude": 14.1728215,
  "Longitude": 79.3289523,
  "LatLng": "14.1728215, 79.3289523"
 },
 {
  "State": "Andhra Pradesh",
  "District": "Annamayya",
  "Address": "Settigunta-Rly. Kodur Mandal",
  "Logger Id": "PD1748",
  "Type of Facility": "ILR",
  "Lattiude": 13.8530943,
  "Longitude": 79.398642,
  "LatLng": "13.8530943, 79.398642"
 },
 {
  "State": "Andhra Pradesh",
  "District": "Annamayya",
  "Address": "TALAPULA-PILER Mandal",
  "Logger Id": "PD0028",
  "Type of Facility": "ILR",
  "Lattiude": 13.654869,
  "Longitude": 78.9471378,
  "LatLng": "13.654869, 78.9471378"
 },
 {
  "State": "Andhra Pradesh",
  "District": "Annamayya",
  "Address": "Tarigonda-Gurramkonda Mandal",
  "Logger Id": "PD0267",
  "Type of Facility": "ILR",
  "Lattiude": 13.6935748,
  "Longitude": 78.6278158,
  "LatLng": "13.6935748, 78.6278158"
 },
 {
  "State": "Andhra Pradesh",
  "District": "Annamayya",
  "Address": "V.P.R.Kandrika-Rly. Kodur Mandal",
  "Logger Id": "PD1771",
  "Type of Facility": "ILR",
  "Lattiude": 13.9218923,
  "Longitude": 79.3447955,
  "LatLng": "13.9218923, 79.3447955"
 },
 {
  "State": "Andhra Pradesh",
  "District": "Annamayya",
  "Address": "Veeraballi-Veeraballi Mandal",
  "Logger Id": "PD1679",
  "Type of Facility": "ILR",
  "Lattiude": 14.1576711,
  "Longitude": 78.8566661,
  "LatLng": "14.1576711, 78.8566661"
 },
 {
  "State": "Andhra Pradesh",
  "District": "Annamayya",
  "Address": "Veligallu-Peddamandyam Mandal",
  "Logger Id": "PD0022",
  "Type of Facility": "ILR",
  "Lattiude": 13.8232951,
  "Longitude": 78.5355606,
  "LatLng": "13.8232951, 78.5355606"
 },
 {
  "State": "Andhra Pradesh",
  "District": "Bapatla",
  "Address": "ABV Palem - Parchuru Mandal",
  "Logger Id": "PD1222",
  "Type of Facility": "ILR",
  "Lattiude": 15.9684068,
  "Longitude": 80.2767779,
  "LatLng": "15.9684068, 80.2767779"
 },
 {
  "State": "Andhra Pradesh",
  "District": "Bapatla",
  "Address": "ANANTHAVARAM-Kolluru Mandal",
  "Logger Id": "PD1260",
  "Type of Facility": "ILR",
  "Lattiude": 16.2331731,
  "Longitude": 80.7713243,
  "LatLng": "16.2331731, 80.7713243"
 },
 {
  "State": "Andhra Pradesh",
  "District": "Bapatla",
  "Address": "Amarthaluru-Amarthaluru Mandal",
  "Logger Id": "PD0729",
  "Type of Facility": "ILR",
  "Lattiude": 15.9039445,
  "Longitude": 80.4671375,
  "LatLng": "15.9039445, 80.4671375"
 },
 {
  "State": "Andhra Pradesh",
  "District": "Bapatla",
  "Address": "Ambadipudi - Ballikurava  Mandal",
  "Logger Id": "PD1331",
  "Type of Facility": "ILR",
  "Lattiude": 15.9735277,
  "Longitude": 80.0101724,
  "LatLng": "15.9735277, 80.0101724"
 },
 {
  "State": "Andhra Pradesh",
  "District": "Bapatla",
  "Address": "Ballikurava - Ballikurava Mandal",
  "Logger Id": "PD1798",
  "Type of Facility": "ILR",
  "Lattiude": 15.999866,
  "Longitude": 80.0276929,
  "LatLng": "15.999866, 80.0276929"
 },
 {
  "State": "Andhra Pradesh",
  "District": "Bapatla",
  "Address": "Bhattiprolu-Bhattiprolu Mandal",
  "Logger Id": "PD0564",
  "Type of Facility": "ILR",
  "Lattiude": 16.1038105,
  "Longitude": 80.7845272,
  "LatLng": "16.1038105, 80.7845272"
 },
 {
  "State": "Andhra Pradesh",
  "District": "Bapatla",
  "Address": "Bobbarlanka-Repalle Mandal",
  "Logger Id": "PD1085",
  "Type of Facility": "ILR",
  "Lattiude": 15.949205,
  "Longitude": 80.8841283,
  "LatLng": "15.949205, 80.8841283"
 },
 {
  "State": "Andhra Pradesh",
  "District": "Bapatla",
  "Address": "Bommanampadu-Addanki Mandal",
  "Logger Id": "PD1903",
  "Type of Facility": "ILR",
  "Lattiude": 15.8400147,
  "Longitude": 80.0101724,
  "LatLng": "15.8400147, 80.0101724"
 },
 {
  "State": "Andhra Pradesh",
  "District": "Bapatla",
  "Address": "CHAVLI-Vemuru Mandal",
  "Logger Id": "PD0345",
  "Type of Facility": "ILR",
  "Lattiude": 16.1595313,
  "Longitude": 80.7399659,
  "LatLng": "16.1595313, 80.7399659"
 },
 {
  "State": "Andhra Pradesh",
  "District": "Bapatla",
  "Address": "CHINAPARMI-Tsundur Mandal",
  "Logger Id": "PD1638",
  "Type of Facility": "ILR",
  "Lattiude": 16.1588948,
  "Longitude": 80.5833296,
  "LatLng": "16.1588948, 80.5833296"
 },
 {
  "State": "Andhra Pradesh",
  "District": "Bapatla",
  "Address": "Cherukupalli-Cherukupalli Mandal",
  "Logger Id": "PD1636",
  "Type of Facility": "ILR",
  "Lattiude": 16.0493704,
  "Longitude": 80.6805413,
  "LatLng": "16.0493704, 80.6805413"
 },
 {
  "State": "Andhra Pradesh",
  "District": "Bapatla",
  "Address": "Chinaganjam - Chinaganjam Mandal",
  "Logger Id": "PD1257",
  "Type of Facility": "ILR",
  "Lattiude": 15.698071,
  "Longitude": 80.2377078,
  "LatLng": "15.698071, 80.2377078"
 },
 {
  "State": "Andhra Pradesh",
  "District": "Bapatla",
  "Address": "Chiralanagar - Chirala Mandal",
  "Logger Id": "PD1562",
  "Type of Facility": "ILR",
  "Lattiude": 15.8124858,
  "Longitude": 80.3343661,
  "LatLng": "15.8124858, 80.3343661"
 },
 {
  "State": "Andhra Pradesh",
  "District": "Bapatla",
  "Address": "Epurupalem - Chirala Mandal",
  "Logger Id": "PD1639",
  "Type of Facility": "ILR",
  "Lattiude": 15.8511736,
  "Longitude": 80.3839584,
  "LatLng": "15.8511736, 80.3839584"
 },
 {
  "State": "Andhra Pradesh",
  "District": "Bapatla",
  "Address": "Govada-Amarthaluru Mandal",
  "Logger Id": "PD0802",
  "Type of Facility": "ILR",
  "Lattiude": 16.0843873,
  "Longitude": 80.6663582,
  "LatLng": "16.0843873, 80.6663582"
 },
 {
  "State": "Andhra Pradesh",
  "District": "Bapatla",
  "Address": "Gudavalli - Cherukupalli Mandal",
  "Logger Id": "AA1309",
  "Type of Facility": "ILR",
  "Lattiude": 16.071,
  "Longitude": 80.71789,
  "LatLng": "16.071, 80.71789"
 },
 {
  "State": "Andhra Pradesh",
  "District": "Bapatla",
  "Address": "Guttavaripalem-Bhattiprolu Mandal",
  "Logger Id": "PD0789",
  "Type of Facility": "ILR",
  "Lattiude": 16.0864949,
  "Longitude": 80.8250638,
  "LatLng": "16.0864949, 80.8250638"
 },
 {
  "State": "Andhra Pradesh",
  "District": "Bapatla",
  "Address": "K Rajupalem - Ballikurava Mandal",
  "Logger Id": "AA0114",
  "Type of Facility": "ILR",
  "Lattiude": 16.5068357,
  "Longitude": 80.6734738,
  "LatLng": "16.5068357, 80.6734738"
 },
 {
  "State": "Andhra Pradesh",
  "District": "Bapatla",
  "Address": "KOLLURU-Kolluru Mandal",
  "Logger Id": "PD0417",
  "Type of Facility": "ILR",
  "Lattiude": 16.1828024,
  "Longitude": 80.79746,
  "LatLng": "16.1828024, 80.79746"
 },
 {
  "State": "Andhra Pradesh",
  "District": "Bapatla",
  "Address": "Kankatapalem-Bapatla Mandal",
  "Logger Id": "PD0058",
  "Type of Facility": "ILR",
  "Lattiude": 15.9223748,
  "Longitude": 80.4173514,
  "LatLng": "15.9223748, 80.4173514"
 },
 {
  "State": "Andhra Pradesh",
  "District": "Bapatla",
  "Address": "Karlapalem-Karlapalem Mandal",
  "Logger Id": "PD0817",
  "Type of Facility": "ILR",
  "Lattiude": 15.9408472,
  "Longitude": 80.5379739,
  "LatLng": "15.9408472, 80.5379739"
 },
 {
  "State": "Andhra Pradesh",
  "District": "Bapatla",
  "Address": "Kolalapudi-Martur Mandal",
  "Logger Id": "PD0862",
  "Type of Facility": "ILR",
  "Lattiude": 15.8914571,
  "Longitude": 80.103074,
  "LatLng": "15.8914571, 80.103074"
 },
 {
  "State": "Andhra Pradesh",
  "District": "Bapatla",
  "Address": "Korisapadu-Korisapadu Mandal",
  "Logger Id": "PD0887",
  "Type of Facility": "ILR",
  "Lattiude": 15.7570503,
  "Longitude": 80.0353285,
  "LatLng": "15.7570503, 80.0353285"
 },
 {
  "State": "Andhra Pradesh",
  "District": "Bapatla",
  "Address": "Kothapeta - Vetapalem Mandal",
  "Logger Id": "PD0834",
  "Type of Facility": "ILR",
  "Lattiude": 15.8235434,
  "Longitude": 80.3643751,
  "LatLng": "15.8235434, 80.3643751"
 },
 {
  "State": "Andhra Pradesh",
  "District": "Bapatla",
  "Address": "Kuchinapudi-Nizampatnam Mandal",
  "Logger Id": "PD1833",
  "Type of Facility": "ILR",
  "Lattiude": 15.962373,
  "Longitude": 80.749849,
  "LatLng": "15.962373, 80.749849"
 },
 {
  "State": "Andhra Pradesh",
  "District": "Bapatla",
  "Address": "Kukatlapalli -Ballikurava Mandal",
  "Logger Id": "PD1194",
  "Type of Facility": "ILR",
  "Lattiude": 15.9639269,
  "Longitude": 79.9290642,
  "LatLng": "15.9639269, 79.9290642"
 },
 {
  "State": "Andhra Pradesh",
  "District": "Bapatla",
  "Address": "Makkenavaripalem - Santhamaguluru Mandal",
  "Logger Id": "PD0526",
  "Type of Facility": "ILR",
  "Lattiude": 16.0227228,
  "Longitude": 79.9572748,
  "LatLng": "16.0227228, 79.9572748"
 },
 {
  "State": "Andhra Pradesh",
  "District": "Bapatla",
  "Address": "Medarametla-Korisapadu Mandal",
  "Logger Id": "PD0842",
  "Type of Facility": "ILR",
  "Lattiude": 15.7245496,
  "Longitude": 80.0188812,
  "LatLng": "15.7245496, 80.0188812"
 },
 {
  "State": "Andhra Pradesh",
  "District": "Bapatla",
  "Address": "Mulpuru-Amarthaluru Mandal",
  "Logger Id": "PD0400",
  "Type of Facility": "ILR",
  "Lattiude": 16.1596712,
  "Longitude": 80.6810495,
  "LatLng": "16.1596712, 80.6810495"
 },
 {
  "State": "Andhra Pradesh",
  "District": "Bapatla",
  "Address": "Muppavaram-J.Panguluru Mandal",
  "Logger Id": "PD0078",
  "Type of Facility": "ILR",
  "Lattiude": 15.820271,
  "Longitude": 80.0956936,
  "LatLng": "15.820271, 80.0956936"
 },
 {
  "State": "Andhra Pradesh",
  "District": "Bapatla",
  "Address": "Nizampatnam-Bhattiprolu Mandal",
  "Logger Id": "PD0191",
  "Type of Facility": "ILR",
  "Lattiude": 15.9055019,
  "Longitude": 80.6682428,
  "LatLng": "15.9055019, 80.6682428"
 },
 {
  "State": "Andhra Pradesh",
  "District": "Bapatla",
  "Address": "Nuthalapadu - Parchuru Mandal",
  "Logger Id": "PD0394",
  "Type of Facility": "ILR",
  "Lattiude": 15.9612071,
  "Longitude": 80.268988,
  "LatLng": "15.9612071, 80.268988"
 },
 {
  "State": "Andhra Pradesh",
  "District": "Bapatla",
  "Address": "Pudiwada-Nagaram Mandal",
  "Logger Id": "PD0216",
  "Type of Facility": "ILR",
  "Lattiude": 15.9970269,
  "Longitude": 80.6937177,
  "LatLng": "15.9970269, 80.6937177"
 },
 {
  "State": "Andhra Pradesh",
  "District": "Bapatla",
  "Address": "RLU Kavuru - cherukupalli Mandal",
  "Logger Id": "AA1244",
  "Type of Facility": "ILR",
  "Lattiude": 16.03931,
  "Longitude": 80.65821,
  "LatLng": "16.03931, 80.65821"
 },
 {
  "State": "Andhra Pradesh",
  "District": "Bapatla",
  "Address": "RLU Kunduru - Santhamagulur Mandal",
  "Logger Id": "AA1742",
  "Type of Facility": "ILR",
  "Lattiude": 16.5253343,
  "Longitude": 80.6884229,
  "LatLng": "16.5253343, 80.6884229"
 },
 {
  "State": "Andhra Pradesh",
  "District": "Bapatla",
  "Address": "RLU Rambhotlvaripalem - Cherukupalli Mandal",
  "Logger Id": "AA1289",
  "Type of Facility": "ILR",
  "Lattiude": 16.5068361,
  "Longitude": 80.6734756,
  "LatLng": "16.5068361, 80.6734756"
 },
 {
  "State": "Andhra Pradesh",
  "District": "Bapatla",
  "Address": "RLU Tangedumalli -  Santhamagulur Mandal",
  "Logger Id": "AA1208",
  "Type of Facility": "ILR",
  "Lattiude": 16.5253,
  "Longitude": 80.68844,
  "LatLng": "16.5253, 80.68844"
 },
 {
  "State": "Andhra Pradesh",
  "District": "Bapatla",
  "Address": "RLU Uppamaguluru - Ballikurava Mandal",
  "Logger Id": "AA0024",
  "Type of Facility": "ILR",
  "Lattiude": 16.077794,
  "Longitude": 80.066487,
  "LatLng": "16.077794, 80.066487"
 },
 {
  "State": "Andhra Pradesh",
  "District": "Bapatla",
  "Address": "RLU Vellacheruvu -  Santhamagulur Mandal",
  "Logger Id": "AA0858",
  "Type of Facility": "ILR",
  "Lattiude": 16.5253046,
  "Longitude": 80.6884338,
  "LatLng": "16.5253046, 80.6884338"
 },
 {
  "State": "Andhra Pradesh",
  "District": "Bapatla",
  "Address": "Swarna - Karmchedu Mandal",
  "Logger Id": "PD0718",
  "Type of Facility": "ILR",
  "Lattiude": 15.856283,
  "Longitude": 80.2861818,
  "LatLng": "15.856283, 80.2861818"
 },
 {
  "State": "Andhra Pradesh",
  "District": "Bapatla",
  "Address": "TSUNDURU-Tsundur Mandal",
  "Logger Id": "PD1944",
  "Type of Facility": "ILR",
  "Lattiude": 16.1567133,
  "Longitude": 80.585835,
  "LatLng": "16.1567133, 80.585835"
 },
 {
  "State": "Andhra Pradesh",
  "District": "Bapatla",
  "Address": "Vedullapalli-Bapatla Mandal",
  "Logger Id": "PD1629",
  "Type of Facility": "ILR",
  "Lattiude": 15.878922,
  "Longitude": 80.4201336,
  "LatLng": "15.878922, 80.4201336"
 },
 {
  "State": "Andhra Pradesh",
  "District": "Bapatla",
  "Address": "Vetapalem - Vetapalem Mandal",
  "Logger Id": "PD1732",
  "Type of Facility": "ILR",
  "Lattiude": 15.771135,
  "Longitude": 80.2994823,
  "LatLng": "15.771135, 80.2994823"
 },
 {
  "State": "Andhra Pradesh",
  "District": "Bapatla",
  "Address": "Yaddanapudi  - Yaddanapudi Mandal",
  "Logger Id": "PD1573",
  "Type of Facility": "ILR",
  "Lattiude": 15.9975801,
  "Longitude": 80.1722073,
  "LatLng": "15.9975801, 80.1722073"
 },
 {
  "State": "Andhra Pradesh",
  "District": "Bapatla",
  "Address": "karamchedu - Karmchedu Mandal",
  "Logger Id": "PD1487",
  "Type of Facility": "ILR",
  "Lattiude": 15.884568,
  "Longitude": 80.3164048,
  "LatLng": "15.884568, 80.3164048"
 },
 {
  "State": "Andhra Pradesh",
  "District": "Chittoor",
  "Address": "197 Ramapuram-Gudipala Mandal",
  "Logger Id": "PD0976",
  "Type of Facility": "ILR",
  "Lattiude": 13.1066876,
  "Longitude": 79.1809159,
  "LatLng": "13.1066876, 79.1809159"
 },
 {
  "State": "Andhra Pradesh",
  "District": "Chittoor",
  "Address": "AVH Gudipala-Gudipala Mandal",
  "Logger Id": "PD0867",
  "Type of Facility": "ILR",
  "Lattiude": 13.1012691,
  "Longitude": 79.1248645,
  "LatLng": "13.1012691, 79.1248645"
 },
 {
  "State": "Andhra Pradesh",
  "District": "Chittoor",
  "Address": "AVH Nindra",
  "Logger Id": "AA0175",
  "Type of Facility": "ILR",
  "Lattiude": 14.48264,
  "Longitude": 78.7836,
  "LatLng": "14.48264, 78.7836"
 },
 {
  "State": "Andhra Pradesh",
  "District": "Chittoor",
  "Address": "AVH Vedurukuppam-Vedurukuppam Mandal",
  "Logger Id": "PD0418",
  "Type of Facility": "ILR",
  "Lattiude": 13.4514598,
  "Longitude": 79.3212058,
  "LatLng": "13.4514598, 79.3212058"
 },
 {
  "State": "Andhra Pradesh",
  "District": "Chittoor",
  "Address": "Agaram-Nindra Mandal",
  "Logger Id": "PD0661",
  "Type of Facility": "ILR",
  "Lattiude": 13.353847,
  "Longitude": 79.7147468,
  "LatLng": "13.353847, 79.7147468"
 },
 {
  "State": "Andhra Pradesh",
  "District": "Chittoor",
  "Address": "Baireddypalli-Bairedypalli Mandal",
  "Logger Id": "PD0678",
  "Type of Facility": "ILR",
  "Lattiude": 13.0907326,
  "Longitude": 78.6083572,
  "LatLng": "13.0907326, 78.6083572"
 },
 {
  "State": "Andhra Pradesh",
  "District": "Chittoor",
  "Address": "Bommasamudram-Gudipala Mandal",
  "Logger Id": "PD0499",
  "Type of Facility": "ILR",
  "Lattiude": 13.0534134,
  "Longitude": 79.1266288,
  "LatLng": "13.0534134, 79.1266288"
 },
 {
  "State": "Andhra Pradesh",
  "District": "Chittoor",
  "Address": "Chowdepalli-Chowdepalli Mandal",
  "Logger Id": "PD0545",
  "Type of Facility": "ILR",
  "Lattiude": 13.4811456,
  "Longitude": 78.6202865,
  "LatLng": "13.4811456, 78.6202865"
 },
 {
  "State": "Andhra Pradesh",
  "District": "Chittoor",
  "Address": "DD AH Puttur",
  "Logger Id": "AA1743",
  "Type of Facility": "ILR",
  "Lattiude": 13.4404213,
  "Longitude": 79.5533743,
  "LatLng": "13.4404213, 79.5533743"
 },
 {
  "State": "Andhra Pradesh",
  "District": "Chittoor",
  "Address": "Edigapalli-Punganur Mandal",
  "Logger Id": "PD1065",
  "Type of Facility": "ILR",
  "Lattiude": 13.36592,
  "Longitude": 78.5750141,
  "LatLng": "13.36592, 78.5750141"
 },
 {
  "State": "Andhra Pradesh",
  "District": "Chittoor",
  "Address": "Etteri",
  "Logger Id": "AA0471",
  "Type of Facility": "ILR",
  "Lattiude": 13.26546,
  "Longitude": 79.21296,
  "LatLng": "13.26546, 79.21296"
 },
 {
  "State": "Andhra Pradesh",
  "District": "Chittoor",
  "Address": "Gangavaram-Gangavaram (M)",
  "Logger Id": "PD0135",
  "Type of Facility": "ILR",
  "Lattiude": 13.217416,
  "Longitude": 78.7457541,
  "LatLng": "13.217416, 78.7457541"
 },
 {
  "State": "Andhra Pradesh",
  "District": "Chittoor",
  "Address": "Gonumakulapalli-V.Kota Mandal",
  "Logger Id": "PD0569",
  "Type of Facility": "ILR",
  "Lattiude": 13.0011676,
  "Longitude": 78.4794568,
  "LatLng": "13.0011676, 78.4794568"
 },
 {
  "State": "Andhra Pradesh",
  "District": "Chittoor",
  "Address": "Gudupalli-Gudupalli Mandal",
  "Logger Id": "PD1091",
  "Type of Facility": "ILR",
  "Lattiude": 12.9735336,
  "Longitude": 78.4975067,
  "LatLng": "12.9735336, 78.4975067"
 },
 {
  "State": "Andhra Pradesh",
  "District": "Chittoor",
  "Address": "JD AH Chittoor",
  "Logger Id": "AA2498",
  "Type of Facility": "ILR",
  "Lattiude": 13.1973113,
  "Longitude": 79.0999504,
  "LatLng": "13.1973113, 79.0999504"
 },
 {
  "State": "Andhra Pradesh",
  "District": "Chittoor",
  "Address": "Kalluru-Pulicherla Mandal",
  "Logger Id": "PD0777",
  "Type of Facility": "ILR",
  "Lattiude": 13.5593429,
  "Longitude": 78.99982,
  "LatLng": "13.5593429, 78.99982"
 },
 {
  "State": "Andhra Pradesh",
  "District": "Chittoor",
  "Address": "Kandur-Somala Mandal",
  "Logger Id": "PD0875",
  "Type of Facility": "ILR",
  "Lattiude": 13.5549253,
  "Longitude": 78.773831,
  "LatLng": "13.5549253, 78.773831"
 },
 {
  "State": "Andhra Pradesh",
  "District": "Chittoor",
  "Address": "Karvetinagaram-Karvetinagaram Mandal",
  "Logger Id": "PD0127",
  "Type of Facility": "ILR",
  "Lattiude": 13.4210317,
  "Longitude": 79.4465159,
  "LatLng": "13.4210317, 79.4465159"
 },
 {
  "State": "Andhra Pradesh",
  "District": "Chittoor",
  "Address": "Kolamaisnapalli-Palamaner Mandal",
  "Logger Id": "PD1784",
  "Type of Facility": "ILR",
  "Lattiude": 13.194898,
  "Longitude": 78.7474214,
  "LatLng": "13.194898, 78.7474214"
 },
 {
  "State": "Andhra Pradesh",
  "District": "Chittoor",
  "Address": "Koppedu-Nindra Mandal",
  "Logger Id": "PD1001",
  "Type of Facility": "ILR",
  "Lattiude": 13.4093667,
  "Longitude": 79.7038771,
  "LatLng": "13.4093667, 79.7038771"
 },
 {
  "State": "Andhra Pradesh",
  "District": "Chittoor",
  "Address": "Madireddypalli-Yadamari Mandal",
  "Logger Id": "PD0317",
  "Type of Facility": "ILR",
  "Lattiude": 13.1536656,
  "Longitude": 78.9853048,
  "LatLng": "13.1536656, 78.9853048"
 },
 {
  "State": "Andhra Pradesh",
  "District": "Chittoor",
  "Address": "Nalagampalli-Bangarupalyam Mandal",
  "Logger Id": "PD1203",
  "Type of Facility": "ILR",
  "Lattiude": 13.1962328,
  "Longitude": 78.9132652,
  "LatLng": "13.1962328, 78.9132652"
 },
 {
  "State": "Andhra Pradesh",
  "District": "Chittoor",
  "Address": "P.Kothakota-Puthalapattu Mandal",
  "Logger Id": "PD1039",
  "Type of Facility": "ILR",
  "Lattiude": 13.4102124,
  "Longitude": 79.1075726,
  "LatLng": "13.4102124, 79.1075726"
 },
 {
  "State": "Andhra Pradesh",
  "District": "Chittoor",
  "Address": "Paipalem-Kuppam Mandal",
  "Logger Id": "PD0052",
  "Type of Facility": "ILR",
  "Lattiude": 12.7461129,
  "Longitude": 78.342291,
  "LatLng": "12.7461129, 78.342291"
 },
 {
  "State": "Andhra Pradesh",
  "District": "Chittoor",
  "Address": "Palasamudram-Palasamudram Mandal",
  "Logger Id": "PD0311",
  "Type of Facility": "ILR",
  "Lattiude": 13.2121167,
  "Longitude": 79.385975,
  "LatLng": "13.2121167, 79.385975"
 },
 {
  "State": "Andhra Pradesh",
  "District": "Chittoor",
  "Address": "Pulicherla-Pulicherla Mandal",
  "Logger Id": "PD1758",
  "Type of Facility": "ILR",
  "Lattiude": 13.6004704,
  "Longitude": 79.043318,
  "LatLng": "13.6004704, 79.043318"
 },
 {
  "State": "Andhra Pradesh",
  "District": "Chittoor",
  "Address": "RADDL Chittoor",
  "Logger Id": "AA0085",
  "Type of Facility": "ILR",
  "Lattiude": 13.21158,
  "Longitude": 79.09307,
  "LatLng": "13.21158, 79.09307"
 },
 {
  "State": "Andhra Pradesh",
  "District": "Chittoor",
  "Address": "RLU Amudala",
  "Logger Id": "AA0092",
  "Type of Facility": "ILR",
  "Lattiude": 13.20912,
  "Longitude": 79.38761,
  "LatLng": "13.20912, 79.38761"
 },
 {
  "State": "Andhra Pradesh",
  "District": "Chittoor",
  "Address": "RLU Palakuru",
  "Logger Id": "AA1158",
  "Type of Facility": "ILR",
  "Lattiude": 14.4823995,
  "Longitude": 78.7836463,
  "LatLng": "14.4823995, 78.7836463"
 },
 {
  "State": "Andhra Pradesh",
  "District": "Chittoor",
  "Address": "RLU Pathagunta",
  "Logger Id": "AA1857",
  "Type of Facility": "ILR",
  "Lattiude": 13.4354019,
  "Longitude": 79.2833701,
  "LatLng": "13.4354019, 79.2833701"
 },
 {
  "State": "Andhra Pradesh",
  "District": "Chittoor",
  "Address": "RLU Paturu",
  "Logger Id": "AA0462",
  "Type of Facility": "ILR",
  "Lattiude": 14.44487,
  "Longitude": 78.8054,
  "LatLng": "14.44487, 78.8054"
 },
 {
  "State": "Andhra Pradesh",
  "District": "Chittoor",
  "Address": "Rlu Jakkidona",
  "Logger Id": "AA2027",
  "Type of Facility": "ILR",
  "Lattiude": 13.40785,
  "Longitude": 79.23419,
  "LatLng": "13.40785, 79.23419"
 },
 {
  "State": "Andhra Pradesh",
  "District": "Chittoor",
  "Address": "Rompicherla-Rompicherla Mandal",
  "Logger Id": "PD0333",
  "Type of Facility": "ILR",
  "Lattiude": 13.6678164,
  "Longitude": 79.050381,
  "LatLng": "13.6678164, 79.050381"
 },
 {
  "State": "Andhra Pradesh",
  "District": "Chittoor",
  "Address": "Sathambakam-Penumur Mandal",
  "Logger Id": "PD1610",
  "Type of Facility": "ILR",
  "Lattiude": 13.2866175,
  "Longitude": 79.1613171,
  "LatLng": "13.2866175, 79.1613171"
 },
 {
  "State": "Andhra Pradesh",
  "District": "Chittoor",
  "Address": "Theertham-Bairedypalli Mandal",
  "Logger Id": "PD1491",
  "Type of Facility": "ILR",
  "Lattiude": 13.0959041,
  "Longitude": 78.5376906,
  "LatLng": "13.0959041, 78.5376906"
 },
 {
  "State": "Andhra Pradesh",
  "District": "Chittoor",
  "Address": "Thugundram-G.D.Nellore Mandal",
  "Logger Id": "PD0174",
  "Type of Facility": "ILR",
  "Lattiude": 13.1911129,
  "Longitude": 79.2666098,
  "LatLng": "13.1911129, 79.2666098"
 },
 {
  "State": "Andhra Pradesh",
  "District": "Chittoor",
  "Address": "Tirumalarajapuram",
  "Logger Id": "AA1912",
  "Type of Facility": "ILR",
  "Lattiude": 13.14795,
  "Longitude": 79.34789,
  "LatLng": "13.14795, 79.34789"
 },
 {
  "State": "Andhra Pradesh",
  "District": "Chittoor",
  "Address": "Vanamaladinne-Punganur Mandal",
  "Logger Id": "PD0441",
  "Type of Facility": "ILR",
  "Lattiude": 13.3155537,
  "Longitude": 78.514259,
  "LatLng": "13.3155537, 78.514259"
 },
 {
  "State": "Andhra Pradesh",
  "District": "Chittoor",
  "Address": "Vijayapuram-Vijayapuram Mandal",
  "Logger Id": "PD1114",
  "Type of Facility": "ILR",
  "Lattiude": 13.2677213,
  "Longitude": 79.6972785,
  "LatLng": "13.2677213, 79.6972785"
 },
 {
  "State": "Andhra Pradesh",
  "District": "East Godhavari",
  "Address": "AVH Gopalapuram - Gopalapuram Mandal",
  "Logger Id": "AA0861",
  "Type of Facility": "ILR",
  "Lattiude": 17.1003648,
  "Longitude": 81.5419898,
  "LatLng": "17.1003648, 81.5419898"
 },
 {
  "State": "Andhra Pradesh",
  "District": "East Godhavari",
  "Address": "AVH Kovvuru - Kovvur Mandal",
  "Logger Id": "AA1861",
  "Type of Facility": "ILR",
  "Lattiude": 17.0167985,
  "Longitude": 81.7264368,
  "LatLng": "17.0167985, 81.7264368"
 },
 {
  "State": "Andhra Pradesh",
  "District": "East Godhavari",
  "Address": "AVH Nallajarla - Nallajarla Mandal",
  "Logger Id": "AA1021",
  "Type of Facility": "ILR",
  "Lattiude": 16.9439,
  "Longitude": 81.40076,
  "LatLng": "16.9439, 81.40076"
 },
 {
  "State": "Andhra Pradesh",
  "District": "East Godhavari",
  "Address": "AVH Nidadavolu - Nidadavolu Mandal",
  "Logger Id": "AA0738",
  "Type of Facility": "ILR",
  "Lattiude": 16.9057555,
  "Longitude": 81.66775,
  "LatLng": "16.9057555, 81.66775"
 },
 {
  "State": "Andhra Pradesh",
  "District": "East Godhavari",
  "Address": "Annadevarapeta-Thallapudi Mandal",
  "Logger Id": "PD1084",
  "Type of Facility": "ILR",
  "Lattiude": 17.1182749,
  "Longitude": 81.6254415,
  "LatLng": "17.1182749, 81.6254415"
 },
 {
  "State": "Andhra Pradesh",
  "District": "East Godhavari",
  "Address": "Biccavolu-Biccavolu Mandal",
  "Logger Id": "PD0475",
  "Type of Facility": "ILR",
  "Lattiude": 16.9665505,
  "Longitude": 82.043438,
  "LatLng": "16.9665505, 82.043438"
 },
 {
  "State": "Andhra Pradesh",
  "District": "East Godhavari",
  "Address": "Burugupudi-Korukonda Mandal",
  "Logger Id": "PD1962",
  "Type of Facility": "ILR",
  "Lattiude": 17.0968244,
  "Longitude": 81.8140779,
  "LatLng": "17.0968244, 81.8140779"
 },
 {
  "State": "Andhra Pradesh",
  "District": "East Godhavari",
  "Address": "Chagallu-Chagallu Mandal",
  "Logger Id": "PD0220",
  "Type of Facility": "ILR",
  "Lattiude": 17.0127026,
  "Longitude": 81.7025144,
  "LatLng": "17.0127026, 81.7025144"
 },
 {
  "State": "Andhra Pradesh",
  "District": "East Godhavari",
  "Address": "Chodavaram-Nallajerla Mandal",
  "Logger Id": "PD1156",
  "Type of Facility": "ILR",
  "Lattiude": 16.9551733,
  "Longitude": 81.4546775,
  "LatLng": "16.9551733, 81.4546775"
 },
 {
  "State": "Andhra Pradesh",
  "District": "East Godhavari",
  "Address": "Deputy Director (AH) - Kovvuru Mandal",
  "Logger Id": "AA0427",
  "Type of Facility": "ILR",
  "Lattiude": 17.0171865,
  "Longitude": 81.726465,
  "LatLng": "17.0171865, 81.726465"
 },
 {
  "State": "Andhra Pradesh",
  "District": "East Godhavari",
  "Address": "Jegurupadu-Kadiam Mandal",
  "Logger Id": "PD0944",
  "Type of Facility": "ILR",
  "Lattiude": 16.9091169,
  "Longitude": 81.8497567,
  "LatLng": "16.9091169, 81.8497567"
 },
 {
  "State": "Andhra Pradesh",
  "District": "East Godhavari",
  "Address": "Kalavalapalli-Chagallu Mandal",
  "Logger Id": "PD0026",
  "Type of Facility": "ILR",
  "Lattiude": 16.9487665,
  "Longitude": 81.6411184,
  "LatLng": "16.9487665, 81.6411184"
 },
 {
  "State": "Andhra Pradesh",
  "District": "East Godhavari",
  "Address": "Khandavalli-Peravali Mandal",
  "Logger Id": "PD0687",
  "Type of Facility": "ILR",
  "Lattiude": 16.7210749,
  "Longitude": 81.7712361,
  "LatLng": "16.7210749, 81.7712361"
 },
 {
  "State": "Andhra Pradesh",
  "District": "East Godhavari",
  "Address": "Komaripalem-Biccavolu Mandal",
  "Logger Id": "PD0444",
  "Type of Facility": "ILR",
  "Lattiude": 16.9225264,
  "Longitude": 82.0039255,
  "LatLng": "16.9225264, 82.0039255"
 },
 {
  "State": "Andhra Pradesh",
  "District": "East Godhavari",
  "Address": "Korumamidi-Nidadavolu Mandal",
  "Logger Id": "PD1021",
  "Type of Facility": "ILR",
  "Lattiude": 16.9461518,
  "Longitude": 81.5719819,
  "LatLng": "16.9461518, 81.5719819"
 },
 {
  "State": "Andhra Pradesh",
  "District": "East Godhavari",
  "Address": "Kutukuluru-Anaparthi Mandal",
  "Logger Id": "PD1110",
  "Type of Facility": "ILR",
  "Lattiude": 16.8761144,
  "Longitude": 81.9780262,
  "LatLng": "16.8761144, 81.9780262"
 },
 {
  "State": "Andhra Pradesh",
  "District": "East Godhavari",
  "Address": "Pasivedula-Kovvur Mandal",
  "Logger Id": "PD0776",
  "Type of Facility": "ILR",
  "Lattiude": 17.0125618,
  "Longitude": 81.727383,
  "LatLng": "17.0125618, 81.727383"
 },
 {
  "State": "Andhra Pradesh",
  "District": "East Godhavari",
  "Address": "Peravali - Peravali Mandal",
  "Logger Id": "AA0400",
  "Type of Facility": "ILR",
  "Lattiude": 16.74996,
  "Longitude": 81.73914,
  "LatLng": "16.74996, 81.73914"
 },
 {
  "State": "Andhra Pradesh",
  "District": "East Godhavari",
  "Address": "Polamuru-Anaparthi Mandal",
  "Logger Id": "PD0993",
  "Type of Facility": "ILR",
  "Lattiude": 16.9093137,
  "Longitude": 81.9657549,
  "LatLng": "16.9093137, 81.9657549"
 },
 {
  "State": "Andhra Pradesh",
  "District": "East Godhavari",
  "Address": "Pothavaram-Nallajerla Mandal",
  "Logger Id": "PD0636",
  "Type of Facility": "ILR",
  "Lattiude": 17.0185339,
  "Longitude": 81.412788,
  "LatLng": "17.0185339, 81.412788"
 },
 {
  "State": "Andhra Pradesh",
  "District": "East Godhavari",
  "Address": "Punyakshetram-Rajanagaram Mandal",
  "Logger Id": "PD0889",
  "Type of Facility": "ILR",
  "Lattiude": 16.9765865,
  "Longitude": 81.8524882,
  "LatLng": "16.9765865, 81.8524882"
 },
 {
  "State": "Andhra Pradesh",
  "District": "East Godhavari",
  "Address": "Purushothapalli-Nidadavolu Mandal",
  "Logger Id": "PD1179",
  "Type of Facility": "ILR",
  "Lattiude": 16.9079589,
  "Longitude": 81.7116839,
  "LatLng": "16.9079589, 81.7116839"
 },
 {
  "State": "Andhra Pradesh",
  "District": "East Godhavari",
  "Address": "Rajampalem-Gopalapuram Mandal",
  "Logger Id": "PD1163",
  "Type of Facility": "ILR",
  "Lattiude": 17.3829356,
  "Longitude": 81.8961782,
  "LatLng": "17.3829356, 81.8961782"
 },
 {
  "State": "Andhra Pradesh",
  "District": "East Godhavari",
  "Address": "Rajavolu-Rajamahendravaram Rural Mandal",
  "Logger Id": "PD1661",
  "Type of Facility": "ILR",
  "Lattiude": 16.9520617,
  "Longitude": 81.8251687,
  "LatLng": "16.9520617, 81.8251687"
 },
 {
  "State": "Andhra Pradesh",
  "District": "East Godhavari",
  "Address": "Rangampeta-Rangampeta Mandal",
  "Logger Id": "PD1976",
  "Type of Facility": "ILR",
  "Lattiude": 17.0893743,
  "Longitude": 81.9852594,
  "LatLng": "17.0893743, 81.9852594"
 },
 {
  "State": "Andhra Pradesh",
  "District": "East Godhavari",
  "Address": "Seetanagaram-Seethanagaram Mandal",
  "Logger Id": "PD0074",
  "Type of Facility": "ILR",
  "Lattiude": 17.195976,
  "Longitude": 81.672954,
  "LatLng": "17.195976, 81.672954"
 },
 {
  "State": "Andhra Pradesh",
  "District": "East Godhavari",
  "Address": "Tallapudi - Tallapudi Mandal",
  "Logger Id": "AA2285",
  "Type of Facility": "ILR",
  "Lattiude": 17.1272381,
  "Longitude": 81.6645399,
  "LatLng": "17.1272381, 81.6645399"
 },
 {
  "State": "Andhra Pradesh",
  "District": "East Godhavari",
  "Address": "Thorredu-Rajamahendravaram Rural Mandal",
  "Logger Id": "PD0641",
  "Type of Facility": "ILR",
  "Lattiude": 17.0819886,
  "Longitude": 81.7666616,
  "LatLng": "17.0819886, 81.7666616"
 },
 {
  "State": "Andhra Pradesh",
  "District": "East Godhavari",
  "Address": "Undrajavaram-Undrajavaram Mandal",
  "Logger Id": "PD1583",
  "Type of Facility": "ILR",
  "Lattiude": 16.7893633,
  "Longitude": 81.6981473,
  "LatLng": "16.7893633, 81.6981473"
 },
 {
  "State": "Andhra Pradesh",
  "District": "East Godhavari",
  "Address": "Vadapalli-Kovvur Mandal",
  "Logger Id": "PD1603",
  "Type of Facility": "ILR",
  "Lattiude": 16.8154288,
  "Longitude": 81.8128716,
  "LatLng": "16.8154288, 81.8128716"
 },
 {
  "State": "Andhra Pradesh",
  "District": "East Godhavari",
  "Address": "Vadisileru-Rangampeta Mandal",
  "Logger Id": "PD1398",
  "Type of Facility": "ILR",
  "Lattiude": 17.0859869,
  "Longitude": 81.9507538,
  "LatLng": "17.0859869, 81.9507538"
 },
 {
  "State": "Andhra Pradesh",
  "District": "East Godhavari",
  "Address": "Vedullapalli-Seethanagaram Mandal",
  "Logger Id": "PD0701",
  "Type of Facility": "ILR",
  "Lattiude": 17.1313277,
  "Longitude": 81.7186841,
  "LatLng": "17.1313277, 81.7186841"
 },
 {
  "State": "Andhra Pradesh",
  "District": "East Godhavari",
  "Address": "Veliveenu-Undrajavaram Mandal",
  "Logger Id": "PD1382",
  "Type of Facility": "ILR",
  "Lattiude": 16.8425666,
  "Longitude": 81.6870496,
  "LatLng": "16.8425666, 81.6870496"
 },
 {
  "State": "Andhra Pradesh",
  "District": "Eluru",
  "Address": "ADDL Eluru - Eluru Mandal",
  "Logger Id": "AA1473",
  "Type of Facility": "ILR",
  "Lattiude": 16.7198628,
  "Longitude": 81.1142778,
  "LatLng": "16.7198628, 81.1142778"
 },
 {
  "State": "Andhra Pradesh",
  "District": "Eluru",
  "Address": "Agadalalanka - Bhimadole Mandal",
  "Logger Id": "AA1718",
  "Type of Facility": "ILR",
  "Lattiude": 16.511425,
  "Longitude": 80.709325,
  "LatLng": "16.511425, 80.709325"
 },
 {
  "State": "Andhra Pradesh",
  "District": "Eluru",
  "Address": "Agiripalli - Agiripalli Mandal",
  "Logger Id": "PD1139",
  "Type of Facility": "ILR",
  "Lattiude": 16.6799583,
  "Longitude": 80.785171,
  "LatLng": "16.6799583, 80.785171"
 },
 {
  "State": "Andhra Pradesh",
  "District": "Eluru",
  "Address": "Bhaskararaopeta - Kalidindi Mandal",
  "Logger Id": "AA2528",
  "Type of Facility": "ILR",
  "Lattiude": 16.44764,
  "Longitude": 81.33492,
  "LatLng": "16.44764, 81.33492"
 },
 {
  "State": "Andhra Pradesh",
  "District": "Eluru",
  "Address": "Buttayagudem - Buttayagudem Mandal",
  "Logger Id": "PD1354",
  "Type of Facility": "ILR",
  "Lattiude": 17.2027004,
  "Longitude": 81.3199996,
  "LatLng": "17.2027004, 81.3199996"
 },
 {
  "State": "Andhra Pradesh",
  "District": "Eluru",
  "Address": "Chatrai - Chatrai Mandal",
  "Logger Id": "PD0840",
  "Type of Facility": "ILR",
  "Lattiude": 16.9946061,
  "Longitude": 80.8640699,
  "LatLng": "16.9946061, 80.8640699"
 },
 {
  "State": "Andhra Pradesh",
  "District": "Eluru",
  "Address": "Chavalipadu -  Mandavalli Mandal",
  "Logger Id": "AA0677",
  "Type of Facility": "ILR",
  "Lattiude": 16.5218323,
  "Longitude": 80.6876592,
  "LatLng": "16.5218323, 80.6876592"
 },
 {
  "State": "Andhra Pradesh",
  "District": "Eluru",
  "Address": "Chebrolu - Unguturu Mandal",
  "Logger Id": "PD0330",
  "Type of Facility": "ILR",
  "Lattiude": 16.828945,
  "Longitude": 81.3921781,
  "LatLng": "16.828945, 81.3921781"
 },
 {
  "State": "Andhra Pradesh",
  "District": "Eluru",
  "Address": "Chintapdu - Mandavalli Mandal",
  "Logger Id": "PD1238",
  "Type of Facility": "ILR",
  "Lattiude": 16.513692,
  "Longitude": 81.1568329,
  "LatLng": "16.513692, 81.1568329"
 },
 {
  "State": "Andhra Pradesh",
  "District": "Eluru",
  "Address": "Darbhagudem - Jeelugumilli Mandal",
  "Logger Id": "PD1740",
  "Type of Facility": "ILR",
  "Lattiude": 17.2114615,
  "Longitude": 81.1347756,
  "LatLng": "17.2114615, 81.1347756"
 },
 {
  "State": "Andhra Pradesh",
  "District": "Eluru",
  "Address": "Dippakayalapadu  - Koyyalagudem Mandal",
  "Logger Id": "PD0421",
  "Type of Facility": "ILR",
  "Lattiude": 17.1154906,
  "Longitude": 81.455364,
  "LatLng": "17.1154906, 81.455364"
 },
 {
  "State": "Andhra Pradesh",
  "District": "Eluru",
  "Address": "Dippakayalapadu - Eluru Mandal",
  "Logger Id": "AA1316",
  "Type of Facility": "ILR",
  "Lattiude": 17.15722,
  "Longitude": 81.41889,
  "LatLng": "17.15722, 81.41889"
 },
 {
  "State": "Andhra Pradesh",
  "District": "Eluru",
  "Address": "Edara - Agiripalli Mandal",
  "Logger Id": "PD0013",
  "Type of Facility": "ILR",
  "Lattiude": 16.7273975,
  "Longitude": 80.7526199,
  "LatLng": "16.7273975, 80.7526199"
 },
 {
  "State": "Andhra Pradesh",
  "District": "Eluru",
  "Address": "Edulagudem - Agiripalli Mandal",
  "Logger Id": "AA0424",
  "Type of Facility": "ILR",
  "Lattiude": 16.6819,
  "Longitude": 80.78137,
  "LatLng": "16.6819, 80.78137"
 },
 {
  "State": "Andhra Pradesh",
  "District": "Eluru",
  "Address": "Gullapudi - Musunuru Mandal",
  "Logger Id": "AA0226",
  "Type of Facility": "ILR",
  "Lattiude": 16.5019043,
  "Longitude": 80.6300671,
  "LatLng": "16.5019043, 80.6300671"
 },
 {
  "State": "Andhra Pradesh",
  "District": "Eluru",
  "Address": "Gundugolanu - Bhimadole Mandal",
  "Logger Id": "PD1379",
  "Type of Facility": "ILR",
  "Lattiude": 16.7797429,
  "Longitude": 81.2312301,
  "LatLng": "16.7797429, 81.2312301"
 },
 {
  "State": "Andhra Pradesh",
  "District": "Eluru",
  "Address": "JD AH Eluru - Eluru Mandal",
  "Logger Id": "AA1232",
  "Type of Facility": "ILR",
  "Lattiude": 16.7198575,
  "Longitude": 81.1142763,
  "LatLng": "16.7198575, 81.1142763"
 },
 {
  "State": "Andhra Pradesh",
  "District": "Eluru",
  "Address": "Jalipudi - Eluru Mandal",
  "Logger Id": "PD0343",
  "Type of Facility": "ILR",
  "Lattiude": 16.6816556,
  "Longitude": 81.1582112,
  "LatLng": "16.6816556, 81.1582112"
 },
 {
  "State": "Andhra Pradesh",
  "District": "Eluru",
  "Address": "Kaikaram - Unguturu Mandal",
  "Logger Id": "AA1765",
  "Type of Facility": "ILR",
  "Lattiude": 16.056887,
  "Longitude": 79.891044,
  "LatLng": "16.056887, 79.891044"
 },
 {
  "State": "Andhra Pradesh",
  "District": "Eluru",
  "Address": "Kalaparru - Pedapadu Mandal",
  "Logger Id": "PD1308",
  "Type of Facility": "ILR",
  "Lattiude": 16.6697377,
  "Longitude": 81.0120497,
  "LatLng": "16.6697377, 81.0120497"
 },
 {
  "State": "Andhra Pradesh",
  "District": "Eluru",
  "Address": "Kalidindi - Kalidindi Mandal",
  "Logger Id": "PD1216",
  "Type of Facility": "ILR",
  "Lattiude": 16.5064829,
  "Longitude": 81.2915992,
  "LatLng": "16.5064829, 81.2915992"
 },
 {
  "State": "Andhra Pradesh",
  "District": "Eluru",
  "Address": "Kanukollu  - Mandavalli Mandal",
  "Logger Id": "PD0845",
  "Type of Facility": "ILR",
  "Lattiude": 16.4601077,
  "Longitude": 81.132018,
  "LatLng": "16.4601077, 81.132018"
 },
 {
  "State": "Andhra Pradesh",
  "District": "Eluru",
  "Address": "Katrenipadu - Musunuru Mandal",
  "Logger Id": "PD0501",
  "Type of Facility": "ILR",
  "Lattiude": 16.7856631,
  "Longitude": 80.9536678,
  "LatLng": "16.7856631, 80.9536678"
 },
 {
  "State": "Andhra Pradesh",
  "District": "Eluru",
  "Address": "Korukollu - Kalidindi Mandal",
  "Logger Id": "PD1572",
  "Type of Facility": "ILR",
  "Lattiude": 16.4837824,
  "Longitude": 81.2436227,
  "LatLng": "16.4837824, 81.2436227"
 },
 {
  "State": "Andhra Pradesh",
  "District": "Eluru",
  "Address": "Kovvali - Denduluru Mandal",
  "Logger Id": "PD1253",
  "Type of Facility": "ILR",
  "Lattiude": 16.7305111,
  "Longitude": 81.1733717,
  "LatLng": "16.7305111, 81.1733717"
 },
 {
  "State": "Andhra Pradesh",
  "District": "Eluru",
  "Address": "Lingapalem - Lingapalem Mandal",
  "Logger Id": "PD1199",
  "Type of Facility": "ILR",
  "Lattiude": 16.9484113,
  "Longitude": 80.991942,
  "LatLng": "16.9484113, 80.991942"
 },
 {
  "State": "Andhra Pradesh",
  "District": "Eluru",
  "Address": "Mudinepalli - Mudinepalli Mandal",
  "Logger Id": "PD1517",
  "Type of Facility": "ILR",
  "Lattiude": 16.4195214,
  "Longitude": 81.1140376,
  "LatLng": "16.4195214, 81.1140376"
 },
 {
  "State": "Andhra Pradesh",
  "District": "Eluru",
  "Address": "Musunuru - Musunuru Mandal",
  "Logger Id": "PD1155",
  "Type of Facility": "ILR",
  "Lattiude": 16.8260112,
  "Longitude": 80.9339067,
  "LatLng": "16.8260112, 80.9339067"
 },
 {
  "State": "Andhra Pradesh",
  "District": "Eluru",
  "Address": "Nidamarru - Nidamarru Mandal",
  "Logger Id": "PD1436",
  "Type of Facility": "ILR",
  "Lattiude": 16.7234241,
  "Longitude": 81.4210304,
  "LatLng": "16.7234241, 81.4210304"
 },
 {
  "State": "Andhra Pradesh",
  "District": "Eluru",
  "Address": "Pedakadimi - Pedavegi Mandal",
  "Logger Id": "PD0385",
  "Type of Facility": "ILR",
  "Lattiude": 16.7357642,
  "Longitude": 81.0243956,
  "LatLng": "16.7357642, 81.0243956"
 },
 {
  "State": "Andhra Pradesh",
  "District": "Eluru",
  "Address": "Pedapadu - Pedapadu Mandal",
  "Logger Id": "PD1675",
  "Type of Facility": "ILR",
  "Lattiude": 16.636955,
  "Longitude": 81.0333941,
  "LatLng": "16.636955, 81.0333941"
 },
 {
  "State": "Andhra Pradesh",
  "District": "Eluru",
  "Address": "Pedavegi - Pedavegi  Mandal",
  "Logger Id": "PD0682",
  "Type of Facility": "ILR",
  "Lattiude": 16.8101731,
  "Longitude": 81.106506,
  "LatLng": "16.8101731, 81.106506"
 },
 {
  "State": "Andhra Pradesh",
  "District": "Eluru",
  "Address": "Pippara-Ganapavaram Mandal",
  "Logger Id": "PD0341",
  "Type of Facility": "ILR",
  "Lattiude": 16.7046504,
  "Longitude": 81.4684972,
  "LatLng": "16.7046504, 81.4684972"
 },
 {
  "State": "Andhra Pradesh",
  "District": "Eluru",
  "Address": "Prodduvaka - Mudinepalli Mandal",
  "Logger Id": "PD0583",
  "Type of Facility": "ILR",
  "Lattiude": 16.4572905,
  "Longitude": 81.2209014,
  "LatLng": "16.4572905, 81.2209014"
 },
 {
  "State": "Andhra Pradesh",
  "District": "Eluru",
  "Address": "RLU Bandhamcherla - T Narasapuram Mandal",
  "Logger Id": "AA2435",
  "Type of Facility": "ILR",
  "Lattiude": 17.10387,
  "Longitude": 81.0759,
  "LatLng": "17.10387, 81.0759"
 },
 {
  "State": "Andhra Pradesh",
  "District": "Eluru",
  "Address": "RLU Bhujabalapatnam - Kaikaluru Mandal",
  "Logger Id": "AA1024",
  "Type of Facility": "ILR",
  "Lattiude": 16.5541811,
  "Longitude": 81.2147515,
  "LatLng": "16.5541811, 81.2147515"
 },
 {
  "State": "Andhra Pradesh",
  "District": "Eluru",
  "Address": "RLU Chakkapalli - Musunuru",
  "Logger Id": "AA0900",
  "Type of Facility": "ILR",
  "Lattiude": 16.2125809,
  "Longitude": 80.6586515,
  "LatLng": "16.2125809, 80.6586515"
 },
 {
  "State": "Andhra Pradesh",
  "District": "Eluru",
  "Address": "RLU Keethavaram - T Narasapuram Mandal",
  "Logger Id": "AA2525",
  "Type of Facility": "ILR",
  "Lattiude": 17.1038719,
  "Longitude": 81.0759008,
  "LatLng": "17.1038719, 81.0759008"
 },
 {
  "State": "Andhra Pradesh",
  "District": "Eluru",
  "Address": "RLU MV Gudem - T Narasampuram Mandal",
  "Logger Id": "AA1323",
  "Type of Facility": "ILR",
  "Lattiude": 16.52399,
  "Longitude": 80.68668,
  "LatLng": "16.52399, 80.68668"
 },
 {
  "State": "Andhra Pradesh",
  "District": "Eluru",
  "Address": "RLU Polavaram - Chatrai Mandal",
  "Logger Id": "AA1103",
  "Type of Facility": "ILR",
  "Lattiude": 16.50528,
  "Longitude": 80.675718,
  "LatLng": "16.50528, 80.675718"
 },
 {
  "State": "Andhra Pradesh",
  "District": "Eluru",
  "Address": "RLU Pothumarru - Kalidindi Mandal",
  "Logger Id": "AA1992",
  "Type of Facility": "ILR",
  "Lattiude": 16.55032,
  "Longitude": 81.53245,
  "LatLng": "16.55032, 81.53245"
 },
 {
  "State": "Andhra Pradesh",
  "District": "Eluru",
  "Address": "RLU Velpucherla - Musunuru Mandal",
  "Logger Id": "AA2038",
  "Type of Facility": "ILR",
  "Lattiude": 16.507204,
  "Longitude": 80.673482,
  "LatLng": "16.507204, 80.673482"
 },
 {
  "State": "Andhra Pradesh",
  "District": "Eluru",
  "Address": "Sanivarapupeta - Eluru Mandal",
  "Logger Id": "AA1115",
  "Type of Facility": "ILR",
  "Lattiude": 16.7325,
  "Longitude": 81.07937,
  "LatLng": "16.7325, 81.07937"
 },
 {
  "State": "Andhra Pradesh",
  "District": "Eluru",
  "Address": "Seetanapalli -Kaikaluru Mandal",
  "Logger Id": "PD1209",
  "Type of Facility": "ILR",
  "Lattiude": 16.5527879,
  "Longitude": 81.2127852,
  "LatLng": "16.5527879, 81.2127852"
 },
 {
  "State": "Andhra Pradesh",
  "District": "Eluru",
  "Address": "T Narasapuram - T Narasapuram Mandal",
  "Logger Id": "PD0890",
  "Type of Facility": "ILR",
  "Lattiude": 17.1012215,
  "Longitude": 81.0774604,
  "LatLng": "17.1012215, 81.0774604"
 },
 {
  "State": "Andhra Pradesh",
  "District": "Eluru",
  "Address": "Unguturu - Unguturu Mandal",
  "Logger Id": "PD1068",
  "Type of Facility": "ILR",
  "Lattiude": 16.8218926,
  "Longitude": 81.4230383,
  "LatLng": "16.8218926, 81.4230383"
 },
 {
  "State": "Andhra Pradesh",
  "District": "Eluru",
  "Address": "VH Dharmajigudem - Lingapalem Mandal",
  "Logger Id": "AA0180",
  "Type of Facility": "ILR",
  "Lattiude": 16.50184,
  "Longitude": 80.63004,
  "LatLng": "16.50184, 80.63004"
 },
 {
  "State": "Andhra Pradesh",
  "District": "Eluru",
  "Address": "Yarrampalli - Chintalapudi Mandal",
  "Logger Id": "PD1430",
  "Type of Facility": "ILR",
  "Lattiude": 17.0696809,
  "Longitude": 80.9875964,
  "LatLng": "17.0696809, 80.9875964"
 },
 {
  "State": "Andhra Pradesh",
  "District": "Eluru",
  "Address": "Yarrampeta - Koyyalagudem Mandal",
  "Logger Id": "AA0294",
  "Type of Facility": "ILR",
  "Lattiude": 17.069472,
  "Longitude": 81.398845,
  "LatLng": "17.069472, 81.398845"
 },
 {
  "State": "Andhra Pradesh",
  "District": "Guntur",
  "Address": "AB Palem-Pedanandipadu Mandal",
  "Logger Id": "PD1490",
  "Type of Facility": "ILR",
  "Lattiude": 16.1392832,
  "Longitude": 80.3282738,
  "LatLng": "16.1392832, 80.3282738"
 },
 {
  "State": "Andhra Pradesh",
  "District": "Guntur",
  "Address": "ADDL Guntur - Guntur Mandal",
  "Logger Id": "AA1249",
  "Type of Facility": "ILR",
  "Lattiude": 16.29652,
  "Longitude": 80.44997,
  "LatLng": "16.29652, 80.44997"
 },
 {
  "State": "Andhra Pradesh",
  "District": "Guntur",
  "Address": "Angalakuduru-Tenali Mandal",
  "Logger Id": "PD0304",
  "Type of Facility": "ILR",
  "Lattiude": 16.2393275,
  "Longitude": 80.6118768,
  "LatLng": "16.2393275, 80.6118768"
 },
 {
  "State": "Andhra Pradesh",
  "District": "Guntur",
  "Address": "DD AH Guntur - Guntur",
  "Logger Id": "AA1352",
  "Type of Facility": "ILR",
  "Lattiude": 16.296576,
  "Longitude": 80.4492445,
  "LatLng": "16.296576, 80.4492445"
 },
 {
  "State": "Andhra Pradesh",
  "District": "Guntur",
  "Address": "DD AH Tenali  - Tenali",
  "Logger Id": "AA1514",
  "Type of Facility": "ILR",
  "Lattiude": 16.8801286,
  "Longitude": 80.9277429,
  "LatLng": "16.8801286, 80.9277429"
 },
 {
  "State": "Andhra Pradesh",
  "District": "Guntur",
  "Address": "Gottipadu-Prathipadu Mandal",
  "Logger Id": "PD1086",
  "Type of Facility": "ILR",
  "Lattiude": 16.1640601,
  "Longitude": 80.2976316,
  "LatLng": "16.1640601, 80.2976316"
 },
 {
  "State": "Andhra Pradesh",
  "District": "Guntur",
  "Address": "Kakumanu-Kakumanu Mandal",
  "Logger Id": "PD0746",
  "Type of Facility": "ILR",
  "Lattiude": 16.0572832,
  "Longitude": 80.3985655,
  "LatLng": "16.0572832, 80.3985655"
 },
 {
  "State": "Andhra Pradesh",
  "District": "Guntur",
  "Address": "Katrapadu-Vatticherukuru Mandal",
  "Logger Id": "PD0187",
  "Type of Facility": "ILR",
  "Lattiude": 16.1967578,
  "Longitude": 80.4250021,
  "LatLng": "16.1967578, 80.4250021"
 },
 {
  "State": "Andhra Pradesh",
  "District": "Guntur",
  "Address": "Kaza-Mangalagiri Mandal",
  "Logger Id": "PD0594",
  "Type of Facility": "ILR",
  "Lattiude": 16.3907375,
  "Longitude": 80.5454294,
  "LatLng": "16.3907375, 80.5454294"
 },
 {
  "State": "Andhra Pradesh",
  "District": "Guntur",
  "Address": "Kolakaluru-Tenali Mandal",
  "Logger Id": "PD1353",
  "Type of Facility": "ILR",
  "Lattiude": 16.3036391,
  "Longitude": 80.6174279,
  "LatLng": "16.3036391, 80.6174279"
 },
 {
  "State": "Andhra Pradesh",
  "District": "Guntur",
  "Address": "Kollipara-Kollipara Mandal",
  "Logger Id": "PD1450",
  "Type of Facility": "ILR",
  "Lattiude": 16.2872034,
  "Longitude": 80.7494193,
  "LatLng": "16.2872034, 80.7494193"
 },
 {
  "State": "Andhra Pradesh",
  "District": "Guntur",
  "Address": "Mandadam-Thulluru Mandal",
  "Logger Id": "PD0672",
  "Type of Facility": "ILR",
  "Lattiude": 16.5180488,
  "Longitude": 80.5257863,
  "LatLng": "16.5180488, 80.5257863"
 },
 {
  "State": "Andhra Pradesh",
  "District": "Guntur",
  "Address": "Mulukuduru-Ponnur Mandal",
  "Logger Id": "PD1609",
  "Type of Facility": "ILR",
  "Lattiude": 16.0226568,
  "Longitude": 80.5320379,
  "LatLng": "16.0226568, 80.5320379"
 },
 {
  "State": "Andhra Pradesh",
  "District": "Guntur",
  "Address": "Munipalli-Ponnur Mandal",
  "Logger Id": "PD1380",
  "Type of Facility": "ILR",
  "Lattiude": 16.1255225,
  "Longitude": 80.539678,
  "LatLng": "16.1255225, 80.539678"
 },
 {
  "State": "Andhra Pradesh",
  "District": "Guntur",
  "Address": "Munnangi-Kollipara Mandal",
  "Logger Id": "PD0369",
  "Type of Facility": "ILR",
  "Lattiude": 16.3301503,
  "Longitude": 80.7218505,
  "LatLng": "16.3301503, 80.7218505"
 },
 {
  "State": "Andhra Pradesh",
  "District": "Guntur",
  "Address": "Mutluru-Vatticherukuru Mandal",
  "Logger Id": "PD0153",
  "Type of Facility": "ILR",
  "Lattiude": 16.157955,
  "Longitude": 80.4840974,
  "LatLng": "16.157955, 80.4840974"
 },
 {
  "State": "Andhra Pradesh",
  "District": "Guntur",
  "Address": "Namburu -Pedakakani  Mandal",
  "Logger Id": "PD1444",
  "Type of Facility": "ILR",
  "Lattiude": 16.35895,
  "Longitude": 80.5287945,
  "LatLng": "16.35895, 80.5287945"
 },
 {
  "State": "Andhra Pradesh",
  "District": "Guntur",
  "Address": "Nanduru-Ponnur Mandal",
  "Logger Id": "PD1756",
  "Type of Facility": "ILR",
  "Lattiude": 16.0252759,
  "Longitude": 80.5091133,
  "LatLng": "16.0252759, 80.5091133"
 },
 {
  "State": "Andhra Pradesh",
  "District": "Guntur",
  "Address": "Nutakki -Mangalagiri Mandal",
  "Logger Id": "PD0165",
  "Type of Facility": "ILR",
  "Lattiude": 16.4158347,
  "Longitude": 80.6507268,
  "LatLng": "16.4158347, 80.6507268"
 },
 {
  "State": "Andhra Pradesh",
  "District": "Guntur",
  "Address": "Pedakakani-Chebrolu Mandal",
  "Logger Id": "PD0704",
  "Type of Facility": "ILR",
  "Lattiude": 16.3398218,
  "Longitude": 80.4911892,
  "LatLng": "16.3398218, 80.4911892"
 },
 {
  "State": "Andhra Pradesh",
  "District": "Guntur",
  "Address": "Pedapalem-Duggirala Mandal",
  "Logger Id": "PD0372",
  "Type of Facility": "ILR",
  "Lattiude": 16.3841498,
  "Longitude": 80.6590494,
  "LatLng": "16.3841498, 80.6590494"
 },
 {
  "State": "Andhra Pradesh",
  "District": "Guntur",
  "Address": "Pedaravuru-Tenali Mandal",
  "Logger Id": "PD0699",
  "Type of Facility": "ILR",
  "Lattiude": 16.209266,
  "Longitude": 80.6562753,
  "LatLng": "16.209266, 80.6562753"
 },
 {
  "State": "Andhra Pradesh",
  "District": "Guntur",
  "Address": "Ponnekallu-Tadikonda Mandal",
  "Logger Id": "PD0607",
  "Type of Facility": "ILR",
  "Lattiude": 16.4074378,
  "Longitude": 80.4006566,
  "LatLng": "16.4074378, 80.4006566"
 },
 {
  "State": "Andhra Pradesh",
  "District": "Guntur",
  "Address": "Ravela-Tadikonda Mandal",
  "Logger Id": "PD1718",
  "Type of Facility": "ILR",
  "Lattiude": 16.4196975,
  "Longitude": 80.3505521,
  "LatLng": "16.4196975, 80.3505521"
 },
 {
  "State": "Andhra Pradesh",
  "District": "Guntur",
  "Address": "Tadepalli-Tadepalli Mandal",
  "Logger Id": "PD1763",
  "Type of Facility": "ILR",
  "Lattiude": 16.479932,
  "Longitude": 80.6174393,
  "LatLng": "16.479932, 80.6174393"
 },
 {
  "State": "Andhra Pradesh",
  "District": "Guntur",
  "Address": "Uppalapadu(o)-Pedanandipadu Mandal",
  "Logger Id": "PD0536",
  "Type of Facility": "ILR",
  "Lattiude": 16.0768094,
  "Longitude": 80.2335255,
  "LatLng": "16.0768094, 80.2335255"
 },
 {
  "State": "Andhra Pradesh",
  "District": "Guntur",
  "Address": "Uppalapadu-Pedakakani  Mandal",
  "Logger Id": "PD0012",
  "Type of Facility": "ILR",
  "Lattiude": 16.3048631,
  "Longitude": 80.5146713,
  "LatLng": "16.3048631, 80.5146713"
 },
 {
  "State": "Andhra Pradesh",
  "District": "Guntur",
  "Address": "VPC Guntur - Guntur Mandal",
  "Logger Id": "AA1251",
  "Type of Facility": "ILR",
  "Lattiude": 16.2966158,
  "Longitude": 80.4493292,
  "LatLng": "16.2966158, 80.4493292"
 },
 {
  "State": "Andhra Pradesh",
  "District": "Guntur",
  "Address": "Vallabhapuram-Kollipara Mandal",
  "Logger Id": "PD0160",
  "Type of Facility": "ILR",
  "Lattiude": 16.3523452,
  "Longitude": 80.7199896,
  "LatLng": "16.3523452, 80.7199896"
 },
 {
  "State": "Andhra Pradesh",
  "District": "Guntur",
  "Address": "Vangipuram-Prathipadu Mandal",
  "Logger Id": "PD1915",
  "Type of Facility": "ILR",
  "Lattiude": 16.1310603,
  "Longitude": 80.3874375,
  "LatLng": "16.1310603, 80.3874375"
 },
 {
  "State": "Andhra Pradesh",
  "District": "Guntur",
  "Address": "Vatticherukuru-Vatticherukuru Mandal",
  "Logger Id": "PD1762",
  "Type of Facility": "ILR",
  "Lattiude": 16.1819993,
  "Longitude": 80.4478352,
  "LatLng": "16.1819993, 80.4478352"
 },
 {
  "State": "Andhra Pradesh",
  "District": "Guntur",
  "Address": "Vejendla-Chebrolu Mandal",
  "Logger Id": "PD1056",
  "Type of Facility": "ILR",
  "Lattiude": 16.2368816,
  "Longitude": 80.524397,
  "LatLng": "16.2368816, 80.524397"
 },
 {
  "State": "Andhra Pradesh",
  "District": "Kakinada",
  "Address": "ANNAVARAM-Sankhavaram Mandal",
  "Logger Id": "PD0048",
  "Type of Facility": "ILR",
  "Lattiude": 17.2788719,
  "Longitude": 82.4012873,
  "LatLng": "17.2788719, 82.4012873"
 },
 {
  "State": "Andhra Pradesh",
  "District": "Kakinada",
  "Address": "ATCHAMPETA-Samalkot Mandal",
  "Logger Id": "PD1031",
  "Type of Facility": "ILR",
  "Lattiude": 17.030901,
  "Longitude": 82.2298056,
  "LatLng": "17.030901, 82.2298056"
 },
 {
  "State": "Andhra Pradesh",
  "District": "Kakinada",
  "Address": "CHEBROLU-Gollaprolu Mandal",
  "Logger Id": "PD1961",
  "Type of Facility": "ILR",
  "Lattiude": 17.2057591,
  "Longitude": 82.3153433,
  "LatLng": "17.2057591, 82.3153433"
 },
 {
  "State": "Andhra Pradesh",
  "District": "Kakinada",
  "Address": "DHARMAVARAM-Prathipadu Mandal",
  "Logger Id": "PD0790",
  "Type of Facility": "ILR",
  "Lattiude": 17.2294916,
  "Longitude": 82.2264398,
  "LatLng": "17.2294916, 82.2264398"
 },
 {
  "State": "Andhra Pradesh",
  "District": "Kakinada",
  "Address": "DIVILI -Peddapuram Mandal",
  "Logger Id": "PD0757",
  "Type of Facility": "ILR",
  "Lattiude": 17.1434617,
  "Longitude": 82.1638846,
  "LatLng": "17.1434617, 82.1638846"
 },
 {
  "State": "Andhra Pradesh",
  "District": "Kakinada",
  "Address": "DUGGUDURU-Kajuluru Mandal",
  "Logger Id": "PD0057",
  "Type of Facility": "ILR",
  "Lattiude": 16.7816609,
  "Longitude": 82.1482448,
  "LatLng": "16.7816609, 82.1482448"
 },
 {
  "State": "Andhra Pradesh",
  "District": "Kakinada",
  "Address": "DURGADA-Gollaprolu Mandal",
  "Logger Id": "PD1548",
  "Type of Facility": "ILR",
  "Lattiude": 17.2141802,
  "Longitude": 82.3438327,
  "LatLng": "17.2141802, 82.3438327"
 },
 {
  "State": "Andhra Pradesh",
  "District": "Kakinada",
  "Address": "G.MEDAPADU-Samalkot Mandal",
  "Logger Id": "PD1270",
  "Type of Facility": "ILR",
  "Lattiude": 16.9892872,
  "Longitude": 82.1006244,
  "LatLng": "16.9892872, 82.1006244"
 },
 {
  "State": "Andhra Pradesh",
  "District": "Kakinada",
  "Address": "GANDEPALLI-Gandepalli Mandal",
  "Logger Id": "PD0900",
  "Type of Facility": "ILR",
  "Lattiude": 17.1391865,
  "Longitude": 81.961664,
  "LatLng": "17.1391865, 81.961664"
 },
 {
  "State": "Andhra Pradesh",
  "District": "Kakinada",
  "Address": "GOLLAPALEM-Kajuluru Mandal",
  "Logger Id": "PD0829",
  "Type of Facility": "ILR",
  "Lattiude": 16.8010045,
  "Longitude": 82.1681058,
  "LatLng": "16.8010045, 82.1681058"
 },
 {
  "State": "Andhra Pradesh",
  "District": "Kakinada",
  "Address": "KANDRAKOTA -Peddapuram Mandal",
  "Logger Id": "PD0219",
  "Type of Facility": "ILR",
  "Lattiude": 17.1450734,
  "Longitude": 82.1298807,
  "LatLng": "17.1450734, 82.1298807"
 },
 {
  "State": "Andhra Pradesh",
  "District": "Kakinada",
  "Address": "KATHIPUDI-Sankhavaram Mandal",
  "Logger Id": "PD0024",
  "Type of Facility": "ILR",
  "Lattiude": 17.2418038,
  "Longitude": 82.3370505,
  "LatLng": "17.2418038, 82.3370505"
 },
 {
  "State": "Andhra Pradesh",
  "District": "Kakinada",
  "Address": "KATRAVULAPALLI-Jaggampeta Mandal",
  "Logger Id": "PD1559",
  "Type of Facility": "ILR",
  "Lattiude": 17.171159,
  "Longitude": 82.0644394,
  "LatLng": "17.171159, 82.0644394"
 },
 {
  "State": "Andhra Pradesh",
  "District": "Kakinada",
  "Address": "KIRLAMPUDI-Kirlampudi Mandal",
  "Logger Id": "PD1210",
  "Type of Facility": "ILR",
  "Lattiude": 17.2009965,
  "Longitude": 82.1811093,
  "LatLng": "17.2009965, 82.1811093"
 },
 {
  "State": "Andhra Pradesh",
  "District": "Kakinada",
  "Address": "KOTTAM-Kottananduru Mandal",
  "Logger Id": "PD0794",
  "Type of Facility": "ILR",
  "Lattiude": 17.4454055,
  "Longitude": 82.4400679,
  "LatLng": "17.4454055, 82.4400679"
 },
 {
  "State": "Andhra Pradesh",
  "District": "Kakinada",
  "Address": "MADHAVAPATNAM-Samalkot Mandal",
  "Logger Id": "PD1840",
  "Type of Facility": "ILR",
  "Lattiude": 16.9904415,
  "Longitude": 82.2067063,
  "LatLng": "16.9904415, 82.2067063"
 },
 {
  "State": "Andhra Pradesh",
  "District": "Kakinada",
  "Address": "MALLAM-Pithapuram Mandal",
  "Logger Id": "PD0712",
  "Type of Facility": "ILR",
  "Lattiude": 17.1105757,
  "Longitude": 82.1856385,
  "LatLng": "17.1105757, 82.1856385"
 },
 {
  "State": "Andhra Pradesh",
  "District": "Kakinada",
  "Address": "N.SURAVARAM-Tuni Mandal",
  "Logger Id": "PD1935",
  "Type of Facility": "ILR",
  "Lattiude": 17.355267,
  "Longitude": 82.5429325,
  "LatLng": "17.355267, 82.5429325"
 },
 {
  "State": "Andhra Pradesh",
  "District": "Kakinada",
  "Address": "NAYAKAMPALLI-Gandepalli Mandal",
  "Logger Id": "PD1742",
  "Type of Facility": "ILR",
  "Lattiude": 17.1117956,
  "Longitude": 82.0475242,
  "LatLng": "17.1117956, 82.0475242"
 },
 {
  "State": "Andhra Pradesh",
  "District": "Kakinada",
  "Address": "PANDURU-Kakinada R Mandal",
  "Logger Id": "PD0420",
  "Type of Facility": "ILR",
  "Lattiude": 17.0513585,
  "Longitude": 82.2664774,
  "LatLng": "17.0513585, 82.2664774"
 },
 {
  "State": "Andhra Pradesh",
  "District": "Kakinada",
  "Address": "PATAVALA-Tallarevu Mandal",
  "Logger Id": "PD0235",
  "Type of Facility": "ILR",
  "Lattiude": 16.8283807,
  "Longitude": 82.2216538,
  "LatLng": "16.8283807, 82.2216538"
 },
 {
  "State": "Andhra Pradesh",
  "District": "Kakinada",
  "Address": "PEDAPUDI-Peddapudi Mandal",
  "Logger Id": "PD0062",
  "Type of Facility": "ILR",
  "Lattiude": 16.9523477,
  "Longitude": 82.1305609,
  "LatLng": "16.9523477, 82.1305609"
 },
 {
  "State": "Andhra Pradesh",
  "District": "Kakinada",
  "Address": "RADDAL  1 - Kakinada Mandal",
  "Logger Id": "AA0201",
  "Type of Facility": "ILR",
  "Lattiude": 16.9668527,
  "Longitude": 82.232454,
  "LatLng": "16.9668527, 82.232454"
 },
 {
  "State": "Andhra Pradesh",
  "District": "Kakinada",
  "Address": "RADDL 2 - Kakinada Mandal",
  "Logger Id": "AA0453",
  "Type of Facility": "ILR",
  "Lattiude": 16.9668397,
  "Longitude": 82.2323868,
  "LatLng": "16.9668397, 82.2323868"
 },
 {
  "State": "Andhra Pradesh",
  "District": "Kakinada",
  "Address": "TETAGUNTA-Tuni Mandal",
  "Logger Id": "PD1438",
  "Type of Facility": "ILR",
  "Lattiude": 17.3140411,
  "Longitude": 82.4420996,
  "LatLng": "17.3140411, 82.4420996"
 },
 {
  "State": "Andhra Pradesh",
  "District": "Kakinada",
  "Address": "VEERAVARAM -Kirlampudi Mandal",
  "Logger Id": "PD1477",
  "Type of Facility": "ILR",
  "Lattiude": 17.1693842,
  "Longitude": 82.151645,
  "LatLng": "17.1693842, 82.151645"
 },
 {
  "State": "Andhra Pradesh",
  "District": "Kakinada",
  "Address": "VETLAPALEM-Samalkot Mandal",
  "Logger Id": "PD1022",
  "Type of Facility": "ILR",
  "Lattiude": 17.0226875,
  "Longitude": 82.1305609,
  "LatLng": "17.0226875, 82.1305609"
 },
 {
  "State": "Andhra Pradesh",
  "District": "Kakinada",
  "Address": "YELESWARAM-Yeleshwaram Mandal",
  "Logger Id": "PD1428",
  "Type of Facility": "ILR",
  "Lattiude": 17.2882648,
  "Longitude": 82.1063568,
  "LatLng": "17.2882648, 82.1063568"
 },
 {
  "State": "Andhra Pradesh",
  "District": "Konaseema",
  "Address": "Arthamuru - Mandapeta Mandal",
  "Logger Id": "PD0843",
  "Type of Facility": "ILR",
  "Lattiude": 16.8908833,
  "Longitude": 81.9439341,
  "LatLng": "16.8908833, 81.9439341"
 },
 {
  "State": "Andhra Pradesh",
  "District": "Konaseema",
  "Address": "Atchutapuram - Kapileswarapuram Mandal",
  "Logger Id": "PD1564",
  "Type of Facility": "ILR",
  "Lattiude": 16.8106707,
  "Longitude": 81.9705274,
  "LatLng": "16.8106707, 81.9705274"
 },
 {
  "State": "Andhra Pradesh",
  "District": "Konaseema",
  "Address": "Atreyapuram - Atreyapuram Mandal",
  "Logger Id": "PD1211",
  "Type of Facility": "ILR",
  "Lattiude": 16.8343899,
  "Longitude": 81.79314,
  "LatLng": "16.8343899, 81.79314"
 },
 {
  "State": "Andhra Pradesh",
  "District": "Konaseema",
  "Address": "Avidi - Kothapeta Mandal",
  "Logger Id": "PD0609",
  "Type of Facility": "ILR",
  "Lattiude": 16.672679,
  "Longitude": 81.9030024,
  "LatLng": "16.672679, 81.9030024"
 },
 {
  "State": "Andhra Pradesh",
  "District": "Konaseema",
  "Address": "Chelluru - Rayavaram Mandal",
  "Logger Id": "PD1074",
  "Type of Facility": "ILR",
  "Lattiude": 16.8092991,
  "Longitude": 81.9916586,
  "LatLng": "16.8092991, 81.9916586"
 },
 {
  "State": "Andhra Pradesh",
  "District": "Konaseema",
  "Address": "Cheyyaru - Katrenikona Mandal",
  "Logger Id": "PD0717",
  "Type of Facility": "ILR",
  "Lattiude": 16.5828372,
  "Longitude": 82.1536851,
  "LatLng": "16.5828372, 82.1536851"
 },
 {
  "State": "Andhra Pradesh",
  "District": "Konaseema",
  "Address": "Draksharama - Ramachandrapuram Mandal",
  "Logger Id": "PD1773",
  "Type of Facility": "ILR",
  "Lattiude": 16.7914449,
  "Longitude": 82.0597816,
  "LatLng": "16.7914449, 82.0597816"
 },
 {
  "State": "Andhra Pradesh",
  "District": "Konaseema",
  "Address": "Dwarapudi - Mandapeta Mandal",
  "Logger Id": "PD1052",
  "Type of Facility": "ILR",
  "Lattiude": 16.9355804,
  "Longitude": 81.9261999,
  "LatLng": "16.9355804, 81.9261999"
 },
 {
  "State": "Andhra Pradesh",
  "District": "Konaseema",
  "Address": "Geddanapalli - Katrenikona Mandal",
  "Logger Id": "PD0221",
  "Type of Facility": "ILR",
  "Lattiude": 16.5828992,
  "Longitude": 82.1747624,
  "LatLng": "16.5828992, 82.1747624"
 },
 {
  "State": "Andhra Pradesh",
  "District": "Konaseema",
  "Address": "Gopalapuram - Ravulapalem Mandal",
  "Logger Id": "PD1665",
  "Type of Facility": "ILR",
  "Lattiude": 16.7069924,
  "Longitude": 81.8247285,
  "LatLng": "16.7069924, 81.8247285"
 },
 {
  "State": "Andhra Pradesh",
  "District": "Konaseema",
  "Address": "Gudimellanka - Malkipuram Mandal",
  "Logger Id": "PD1315",
  "Type of Facility": "ILR",
  "Lattiude": 16.4409038,
  "Longitude": 81.8074055,
  "LatLng": "16.4409038, 81.8074055"
 },
 {
  "State": "Andhra Pradesh",
  "District": "Konaseema",
  "Address": "Gummileru - Alamuru Mandal",
  "Logger Id": "PD1182",
  "Type of Facility": "ILR",
  "Lattiude": 16.8272387,
  "Longitude": 81.907779,
  "LatLng": "16.8272387, 81.907779"
 },
 {
  "State": "Andhra Pradesh",
  "District": "Konaseema",
  "Address": "Kesavadasupalem - Sakhinetipalli Mandal",
  "Logger Id": "PD1062",
  "Type of Facility": "ILR",
  "Lattiude": 16.3613034,
  "Longitude": 81.7978572,
  "LatLng": "16.3613034, 81.7978572"
 },
 {
  "State": "Andhra Pradesh",
  "District": "Konaseema",
  "Address": "Kothalanka - Mummidivaram Mandal",
  "Logger Id": "PD0200",
  "Type of Facility": "ILR",
  "Lattiude": 16.6378126,
  "Longitude": 82.1373629,
  "LatLng": "16.6378126, 82.1373629"
 },
 {
  "State": "Andhra Pradesh",
  "District": "Konaseema",
  "Address": "Kurmapuram - Rayavaram Mandal",
  "Logger Id": "PD0376",
  "Type of Facility": "ILR",
  "Lattiude": 16.7826443,
  "Longitude": 81.990701,
  "LatLng": "16.7826443, 81.990701"
 },
 {
  "State": "Andhra Pradesh",
  "District": "Konaseema",
  "Address": "Lakkavaram  - Malkipuram Mandal",
  "Logger Id": "PD1618",
  "Type of Facility": "ILR",
  "Lattiude": 16.4222286,
  "Longitude": 81.8404124,
  "LatLng": "16.4222286, 81.8404124"
 },
 {
  "State": "Andhra Pradesh",
  "District": "Konaseema",
  "Address": "Machavaram - Rayavaram Mandal",
  "Logger Id": "PD1797",
  "Type of Facility": "ILR",
  "Lattiude": 16.8483481,
  "Longitude": 81.9793896,
  "LatLng": "16.8483481, 81.9793896"
 },
 {
  "State": "Andhra Pradesh",
  "District": "Konaseema",
  "Address": "Magam - Inavelli Mandal",
  "Logger Id": "PD1774",
  "Type of Facility": "ILR",
  "Lattiude": 16.6372889,
  "Longitude": 82.0440378,
  "LatLng": "16.6372889, 82.0440378"
 },
 {
  "State": "Andhra Pradesh",
  "District": "Konaseema",
  "Address": "Mamidikuduru - Razole Mandal",
  "Logger Id": "PD1472",
  "Type of Facility": "ILR",
  "Lattiude": 16.5028955,
  "Longitude": 81.9173312,
  "LatLng": "16.5028955, 81.9173312"
 },
 {
  "State": "Andhra Pradesh",
  "District": "Konaseema",
  "Address": "Mori - Sakhinetipalli Mandal",
  "Logger Id": "PD0988",
  "Type of Facility": "ILR",
  "Lattiude": 16.4021333,
  "Longitude": 81.7632052,
  "LatLng": "16.4021333, 81.7632052"
 },
 {
  "State": "Andhra Pradesh",
  "District": "Konaseema",
  "Address": "Mukteswaram - Inavelli Mandal",
  "Logger Id": "PD0378",
  "Type of Facility": "ILR",
  "Lattiude": 16.9183226,
  "Longitude": 82.1125325,
  "LatLng": "16.9183226, 82.1125325"
 },
 {
  "State": "Andhra Pradesh",
  "District": "Konaseema",
  "Address": "N arsapurapupeta -Ramachandrapuram Mandal",
  "Logger Id": "PD1620",
  "Type of Facility": "ILR",
  "Lattiude": 16.8675093,
  "Longitude": 82.0768023,
  "LatLng": "16.8675093, 82.0768023"
 },
 {
  "State": "Andhra Pradesh",
  "District": "Konaseema",
  "Address": "Penikeru - Alamuru Mandal",
  "Logger Id": "PD1358",
  "Type of Facility": "ILR",
  "Lattiude": 16.7889753,
  "Longitude": 81.8838931,
  "LatLng": "16.7889753, 81.8838931"
 },
 {
  "State": "Andhra Pradesh",
  "District": "Konaseema",
  "Address": "Ryali - Atreyapuram Mandal",
  "Logger Id": "PD1281",
  "Type of Facility": "ILR",
  "Lattiude": 16.7798744,
  "Longitude": 81.8019391,
  "LatLng": "16.7798744, 81.8019391"
 },
 {
  "State": "Andhra Pradesh",
  "District": "Konaseema",
  "Address": "Sakhinetipalli - Sakhinetipalli Mandal",
  "Logger Id": "PD0897",
  "Type of Facility": "ILR",
  "Lattiude": 16.4034462,
  "Longitude": 81.7787067,
  "LatLng": "16.4034462, 81.7787067"
 },
 {
  "State": "Andhra Pradesh",
  "District": "Konaseema",
  "Address": "Tatipaka - Razole Mandal",
  "Logger Id": "PD1554",
  "Type of Facility": "ILR",
  "Lattiude": 16.4964968,
  "Longitude": 81.8799306,
  "LatLng": "16.4964968, 81.8799306"
 },
 {
  "State": "Andhra Pradesh",
  "District": "Konaseema",
  "Address": "V Cchinthalapudi - Amalapuram Mandal",
  "Logger Id": "PD1123",
  "Type of Facility": "ILR",
  "Lattiude": 16.5774798,
  "Longitude": 82.0031455,
  "LatLng": "16.5774798, 82.0031455"
 },
 {
  "State": "Andhra Pradesh",
  "District": "Konaseema",
  "Address": "Veeravellipalem - Inavelli Mandal",
  "Logger Id": "PD1149",
  "Type of Facility": "ILR",
  "Lattiude": 16.6600657,
  "Longitude": 82.0114209,
  "LatLng": "16.6600657, 82.0114209"
 },
 {
  "State": "Andhra Pradesh",
  "District": "Konaseema",
  "Address": "Vella - Ramachandrapuram Mandal",
  "Logger Id": "PD0743",
  "Type of Facility": "ILR",
  "Lattiude": 16.8253812,
  "Longitude": 82.0665903,
  "LatLng": "16.8253812, 82.0665903"
 },
 {
  "State": "Andhra Pradesh",
  "District": "Konaseema",
  "Address": "manepalli -P.Gannavaram Mandal",
  "Logger Id": "PD1542",
  "Type of Facility": "ILR",
  "Lattiude": 16.5199749,
  "Longitude": 81.8866233,
  "LatLng": "16.5199749, 81.8866233"
 },
 {
  "State": "Andhra Pradesh",
  "District": "Krishna",
  "Address": "AVH Allapuram - Allapuram Mandal",
  "Logger Id": "AA0547",
  "Type of Facility": "ILR",
  "Lattiude": 16.5415,
  "Longitude": 80.8178117,
  "LatLng": "16.5415, 80.8178117"
 },
 {
  "State": "Andhra Pradesh",
  "District": "Krishna",
  "Address": "AVH Avanigadda -  Avanigadda Mandal",
  "Logger Id": "AA0879",
  "Type of Facility": "ILR",
  "Lattiude": 16.018871,
  "Longitude": 80.9127023,
  "LatLng": "16.018871, 80.9127023"
 },
 {
  "State": "Andhra Pradesh",
  "District": "Krishna",
  "Address": "AVH Bantumilli - Bantumilli Mandal",
  "Logger Id": "AA1209",
  "Type of Facility": "ILR",
  "Lattiude": 16.370775,
  "Longitude": 81.271144,
  "LatLng": "16.370775, 81.271144"
 },
 {
  "State": "Andhra Pradesh",
  "District": "Krishna",
  "Address": "AVH Bapulapadu - Bapulapadu Mandal",
  "Logger Id": "AA1711",
  "Type of Facility": "ILR",
  "Lattiude": 16.6410143,
  "Longitude": 80.9633963,
  "LatLng": "16.6410143, 80.9633963"
 },
 {
  "State": "Andhra Pradesh",
  "District": "Krishna",
  "Address": "AVH Challapalli -  Challipalli Mandal",
  "Logger Id": "AA0088",
  "Type of Facility": "ILR",
  "Lattiude": 16.115965,
  "Longitude": 80.930643,
  "LatLng": "16.115965, 80.930643"
 },
 {
  "State": "Andhra Pradesh",
  "District": "Krishna",
  "Address": "AVH Elamarru - Padaparupudi Mandal",
  "Logger Id": "AA0146",
  "Type of Facility": "ILR",
  "Lattiude": 16.1968,
  "Longitude": 81.15707,
  "LatLng": "16.1968, 81.15707"
 },
 {
  "State": "Andhra Pradesh",
  "District": "Krishna",
  "Address": "AVH Gudlavalleru - Gudllavalleru Mandal",
  "Logger Id": "AA1735",
  "Type of Facility": "ILR",
  "Lattiude": 16.4927875,
  "Longitude": 80.614095,
  "LatLng": "16.4927875, 80.614095"
 },
 {
  "State": "Andhra Pradesh",
  "District": "Krishna",
  "Address": "AVH Movva - Movva Mandal",
  "Logger Id": "AA0167",
  "Type of Facility": "ILR",
  "Lattiude": 16.5108548,
  "Longitude": 80.7086652,
  "LatLng": "16.5108548, 80.7086652"
 },
 {
  "State": "Andhra Pradesh",
  "District": "Krishna",
  "Address": "AVH Pamarru -  Pamarru Mandal",
  "Logger Id": "AA0923",
  "Type of Facility": "ILR",
  "Lattiude": 16.3268972,
  "Longitude": 80.9641986,
  "LatLng": "16.3268972, 80.9641986"
 },
 {
  "State": "Andhra Pradesh",
  "District": "Krishna",
  "Address": "AVH Penamaluru - Penamaluru Mandal",
  "Logger Id": "AA0741",
  "Type of Facility": "ILR",
  "Lattiude": 16.4638067,
  "Longitude": 80.7184283,
  "LatLng": "16.4638067, 80.7184283"
 },
 {
  "State": "Andhra Pradesh",
  "District": "Krishna",
  "Address": "AVH Vuyyuru - Vuyyuru Mandal",
  "Logger Id": "AA0061",
  "Type of Facility": "ILR",
  "Lattiude": 16.3655226,
  "Longitude": 80.8414689,
  "LatLng": "16.3655226, 80.8414689"
 },